t_s,vx_ref,vy_ref,vz_ref,yawrate_ref_deg_s,vx,vy,vz,roll_deg,pitch_deg,yaw_deg,wx_raw,wy_raw,wz_raw,m1,m2,m3,m4,motor_var1,motor_var2,motor_var3,motor_var4,tilt_deg,scale,log_timestamp,a_N_per_u2,a_source,F1_N,F2_N,F3_N,F4_N,T_N,tau_x_Nm,tau_y_Nm,tau_z_Nm,momentConstant_km,roll_rad,pitch_rad,yaw_rad,wx_radps,wy_radps,wz_radps,gyro_units_detected
7.152557373046875e-07,-9.905204080703103e-21,-1.1334807757556895e-20,-4.978131102460821e-21,-5.9227173000986e-19,1.1303862706979472e-10,-3.4814340299504915e-10,0.0030288831330835,0.0,0.0,0.0,0.0,0.0,0.0,38745.0,38745.0,38745.0,38745.0,motor.m1,motor.m2,motor.m3,motor.m4,0.0,1.0,13627,4.599342544058809e-11,/home/dzmitry/CrazySim/scripts/results/thrustfit_latest.json,0.06904418158561047,0.06904418158561047,0.06904418158561047,0.06904418158561047,0.2761767263424419,0.0,0.0,0.0,0.005964552,0.0,0.0,0.0,0.0,0.0,0.0,"wx:deg/s, wy:deg/s, wz:deg/s"
0.0503900051116943,-1.4508147887297384e-06,-1.2901264598713831e-06,-7.34232731705146e-07,-0.0001358653141999,3.318524066653339e-10,-4.641670381388962e-10,0.0023939555976539,0.0,0.0,0.0,0.0,0.0,0.0,38747.0,38747.0,38747.0,38747.0,motor.m1,motor.m2,motor.m3,motor.m4,0.0,1.0,13677,4.599342544058809e-11,/home/dzmitry/CrazySim/scripts/results/thrustfit_latest.json,0.06905130983065895,0.06905130983065895,0.06905130983065895,0.06905130983065895,0.2762052393226358,0.0,0.0,0.0,0.005964552,0.0,0.0,0.0,0.0,0.0,0.0,"wx:deg/s, wy:deg/s, wz:deg/s"
0.1007628440856933,4.61557602844609e-06,1.05883586744303e-05,2.2355375012559844e-06,-0.0004889003807498,7.118901579339364e-10,-5.328142371752165e-10,0.001857808441855,0.0,0.0,0.0,0.0,0.0,0.0,38752.0,38752.0,38752.0,38752.0,motor.m1,motor.m2,motor.m3,motor.m4,0.0,1.0,13727,4.599342544058809e-11,/home/dzmitry/CrazySim/scripts/results/thrustfit_latest.json,0.06906913205305006,0.06906913205305006,0.06906913205305006,0.06906913205305006,0.2762765282122002,0.0,0.0,0.0,0.005964552,0.0,0.0,0.0,0.0,0.0,0.0,"wx:deg/s, wy:deg/s, wz:deg/s"
0.1511240005493164,6.100234418386899e-05,8.869707412436825e-05,3.0248295173664163e-05,0.0003222209866063,1.3258950604111421e-09,-4.509552731235544e-10,0.0011786506511271,0.0,0.0,0.0,0.0,0.0,0.0,38756.0,38756.0,38756.0,38756.0,motor.m1,motor.m2,motor.m3,motor.m4,0.0,1.0,13778,4.599342544058809e-11,/home/dzmitry/CrazySim/scripts/results/thrustfit_latest.json,0.06908339148672625,0.06908339148672625,0.06908339148672625,0.06908339148672625,0.276333565946905,0.0,0.0,0.0,0.005964552,0.0,0.0,0.0,0.0,0.0,0.0,"wx:deg/s, wy:deg/s, wz:deg/s"
0.2014141082763672,0.000214181637659,0.000272546312193,0.0001064771765557,0.005020611113143,1.734110668394351e-07,1.7101427829402382e-07,0.0006925743655301,0.0,0.0,0.0,0.0,0.0,0.0,38758.0,38760.0,38758.0,38756.0,motor.m1,motor.m2,motor.m3,motor.m4,0.0,1.0,13828,4.599342544058809e-11,/home/dzmitry/CrazySim/scripts/results/thrustfit_latest.json,0.06909052175548545,0.06909765239219205,0.06909052175548545,0.06908339148672625,0.2763620873898892,-4.420880694399991e-07,4.420880694395654e-07,2.1946414412339632e-12,0.005964552,0.0,0.0,0.0,0.0,0.0,0.0,"wx:deg/s, wy:deg/s, wz:deg/s"
0.2517311573028564,0.0004700897495401,0.0005315838613634,0.0002338564823457,0.0168462139420711,6.978340479690814e-06,7.191913482529344e-06,0.0002782431547529,-0.0005012864712625,-0.0001859589247033,-8.180573440874638e-10,-0.0609826669096946,0.0609595887362957,0.0,38760.0,38754.0,38758.0,38764.0,motor.m1,motor.m2,motor.m3,motor.m4,0.0005012864712625,1.0,13878,4.599342544058809e-11,/home/dzmitry/CrazySim/scripts/results/thrustfit_latest.json,0.06909765239219205,0.06907626158591444,0.06909052175548545,0.06911191476944749,0.27637635050303944,8.841989516199765e-07,-1.3262984274284469e-06,1.3167848538983562e-11,0.005964552,-8.749099419234562e-06,-3.2455955095408043e-06,-1.427779412444641e-11,-0.0010643483242211663,0.0010639455341100092,0.0,"wx:deg/s, wy:deg/s, wz:deg/s"
0.3019876480102539,0.0007718803644947,0.0007656240339106,0.0003839999410165,0.0384412333748418,3.4509761462686583e-05,3.813620423898101e-05,-0.0001364690979244,-0.0028838096186518,-0.0023953597992658,-6.757876036544985e-08,-0.1222524344921112,0.0610353052616119,0.0,38743.0,38743.0,38779.0,38779.0,motor.m1,motor.m2,motor.m3,motor.m4,0.0028838096186518,1.0,13928,4.599342544058809e-11,/home/dzmitry/CrazySim/scripts/results/thrustfit_latest.json,0.06903705370850939,0.06903705370850939,0.06916541179228157,0.06916541179228157,0.2764049310015819,7.958201193874678e-06,0.0,0.0,0.005964552,-5.033197284615599e-05,-4.180691526709866e-05,-1.1794718727933465e-09,-0.0021337075004660222,0.0010652670367749465,0.0,"wx:deg/s, wy:deg/s, wz:deg/s"
0.3523759841918945,0.0010243099502137,0.0008792536274416,0.0005094095732562,0.0710163946375105,9.177679748972878e-05,0.0001081710652215,-0.0005483643035404,-0.0065607191063463,-0.0054471329785883,-3.280440523667494e-07,-0.1234606206417083,0.0610351674258708,0.0,38754.0,38754.0,38770.0,38762.0,motor.m1,motor.m2,motor.m3,motor.m4,0.0065607191063463,1.0,13978,4.599342544058809e-11,/home/dzmitry/CrazySim/scripts/results/thrustfit_latest.json,0.06907626158591444,0.06907626158591444,0.06913331109493615,0.06910478339684607,0.2763906176636111,2.652710918552882e-06,8.843586407920184e-07,-1.701549386985018e-07,0.005964552,-0.00011450614970424294,-9.507040527033163e-05,-5.725448805384473e-09,-0.0021547943267534843,0.0010652646310874375,0.0,"wx:deg/s, wy:deg/s, wz:deg/s"
0.4027538299560547,0.0011490576801222,0.0008759591559744,0.0005711334509081,0.1133799271629009,0.0001842854690039,0.0002225502539658,-0.0009555927244946,-0.0103299552574753,-0.0084988866001367,-7.914015895948978e-07,-0.1178711056709289,0.0867676064372062,0.0,38761.0,38725.0,38773.0,38793.0,motor.m1,motor.m2,motor.m3,motor.m4,0.0103299552574753,1.0,14028,4.599342544058809e-11,/home/dzmitry/CrazySim/scripts/results/thrustfit_latest.json,0.06910121784852563,0.06897291937223282,0.06914401049950296,0.06921536102025745,0.27643350874051886,8.842263269060423e-06,-6.189118908466167e-06,-3.3966904210201796e-07,0.005964552,-0.00018029173082664257,-0.00014833355392601216,-1.3812563443947864e-08,-0.0020572388869238693,0.0015143804164038748,0.0,"wx:deg/s, wy:deg/s, wz:deg/s"
0.4531166553497314,0.0011519679019163,0.000903299647582,0.0005723376074888,0.1620116874696042,0.0003169557312503,0.0003786618763115,-0.0012659357162192,-0.013553949072957,-0.0121423415839672,-1.5634112742191064e-06,-0.0122123910114169,0.0117683988064527,0.0,38764.0,38758.0,38778.0,38752.0,motor.m1,motor.m2,motor.m3,motor.m4,0.013553949072957,1.0,14078,4.599342544058809e-11,/home/dzmitry/CrazySim/scripts/results/thrustfit_latest.json,0.06911191476944749,0.06909052175548545,0.06916184468018467,0.06906913205305006,0.27643341325816767,8.847464573556035e-07,2.210908008350252e-06,-6.805890298143178e-07,0.005964552,-0.00023656103797073277,-0.00021192383954205115,-2.7286674297923345e-08,-0.00021314643269018533,0.00020539730686037054,0.0,"wx:deg/s, wy:deg/s, wz:deg/s"
0.5034322738647461,0.0011500713476439,0.0011892841130374,0.0005717740307293,0.2115167330262646,0.0004817876906599,0.000563075125683,-0.0014565719757229,-0.0145264659076929,-0.01373225543648,-8.157113188644871e-05,-2.837360568719305e-07,-7.147186806832906e-06,-0.0613945908844471,38760.0,38754.0,38776.0,38754.0,motor.m1,motor.m2,motor.m3,motor.m4,0.0145264659076929,1.0,14128,4.599342544058809e-11,/home/dzmitry/CrazySim/scripts/results/thrustfit_latest.json,0.06909765239219205,0.06907626158591444,0.06915471073195144,0.06907626158591444,0.2764048862959724,1.768808532541348e-06,1.768808532541348e-06,-5.95500587257942e-07,0.005964552,-0.0002535346587679478,-0.00023967307109146703,-1.4236848259970634e-06,-4.95212839904107e-09,-1.2474194203433416e-07,-0.0010715377538484993,"wx:deg/s, wy:deg/s, wz:deg/s"
0.5538513660430908,0.0013381813617433,0.001898711126097,0.0006670744820571,0.2559124319368638,0.0006668615387752,0.0007665228913538,-0.0018567321822047,-0.0150753390043973,-0.01373200584203,-0.0031297653913497,-0.0121280681341886,-2.837158710278318e-14,-0.0610351674258708,38767.0,38747.0,38779.0,38751.0,motor.m1,motor.m2,motor.m3,motor.m4,0.0150753390043973,1.0,14178,4.599342544058809e-11,/home/dzmitry/CrazySim/scripts/results/thrustfit_latest.json,0.06912261251825098,0.06905130983065895,0.06916541179228157,0.06906556742459813,0.2764049015657896,1.768762907061825e-06,8.847920828338254e-07,-1.020815510837476e-06,0.005964552,-0.0002631143014810568,-0.00023966871484651982,-5.4624710894021124e-05,-0.00021167472084779654,-4.951776089599254e-16,-0.0010652646310874375,"wx:deg/s, wy:deg/s, wz:deg/s"
0.6042711734771729,0.0018999358750486,0.0029879087778848,0.0009503176497187,0.2896496285599422,0.0008431863971054,0.0009886430343613,-0.0022194785997271,-0.0162998903542757,-0.0120678590610623,-0.0074167437851428,-0.1104696691036224,-0.0041991746984422,-0.1220700964331626,38760.0,38724.0,38792.0,38784.0,motor.m1,motor.m2,motor.m3,motor.m4,0.0162998903542757,1.0,14228,4.599342544058809e-11,/home/dzmitry/CrazySim/scripts/results/thrustfit_latest.json,0.06909765239219205,0.06896935722742586,0.06921179262034464,0.06918324873256881,0.2764620509725314,1.0168983732162639e-05,-3.0922895867006514e-06,-9.354746845176894e-07,0.005964552,-0.0002844867543961759,-0.00021062387428216856,-0.00012944659882756874,-0.0019280594494468638,-7.328942435425639e-05,-0.0021305251009856737,"wx:deg/s, wy:deg/s, wz:deg/s"
0.6546661853790283,0.0029007212228099,0.0041717274979553,0.001454596700981,0.3095045647397542,0.0009929107036441,0.0012489767977967,-0.0023854698520153,-0.0217027235776186,-0.0104288412258028,-0.0135197481140494,-0.2398658245801925,-8.452284237137064e-05,-0.1220703125,38744.0,38734.0,38818.0,38756.0,motor.m1,motor.m2,motor.m3,motor.m4,0.0217027235776186,1.0,14278,4.599342544058809e-11,/home/dzmitry/CrazySim/scripts/results/thrustfit_latest.json,0.0690406176010665,0.06900498281490364,0.06930460091380419,0.06908339148672625,0.2764335928165006,1.0614151521369606e-05,5.752813868367592e-06,-1.5319606657739093e-06,0.005964552,-0.0003787839830796477,-0.00018201761655798026,-0.00023596411863045587,-0.004186448401935505,-1.4752018925245895e-06,-0.0021305288720633907,"wx:deg/s, wy:deg/s, wz:deg/s"
0.7051599025726318,0.0042251142826111,0.005048418167157,0.0021228789974956,0.3157557350914869,0.0011439152294769,0.0015920030418783,-0.0025603307876735,-0.0329644381999969,-0.012224905192852,-0.0217144358903169,-0.3052264750003814,0.1714616864919662,-0.1831054389476776,38770.0,38728.0,38786.0,38764.0,motor.m1,motor.m2,motor.m3,motor.m4,0.0329644381999969,1.0,14328,4.599342544058809e-11,/home/dzmitry/CrazySim/scripts/results/thrustfit_latest.json,0.06913331109493615,0.06898360635857477,0.06919038415259167,0.06911191476944749,0.27641921637555006,5.746825524375471e-06,-2.2082959497326735e-06,-1.3609564008450767e-06,0.005964552,-0.0005753379826601389,-0.00021336484635941976,-0.0003789884014992562,-0.005327206953012816,0.002992570970307096,-0.0031957927879464353,"wx:deg/s, wy:deg/s, wz:deg/s"
0.7555747032165527,0.0055808334655329,0.0053158260878408,0.0028099998360296,0.3127555199254188,0.0013420945033431,0.0020469462033361,-0.0027500046417117,-0.0476782508194446,-0.0200088620185852,-0.0308752357959747,-0.3072757720947265,0.3053796589374542,-0.2468238472938537,38756.0,38734.0,38794.0,38760.0,motor.m1,motor.m2,motor.m3,motor.m4,0.0476782508194446,1.0,14378,4.599342544058809e-11,/home/dzmitry/CrazySim/scripts/results/thrustfit_latest.json,0.06908339148672625,0.06900498281490364,0.06921892951215712,0.06909765239219205,0.2764049562059791,7.07443568429781e-06,1.3289218924162315e-06,-1.1910362887788354e-06,0.005964552,-0.0008321424583909927,-0.0003492205218015506,-0.0005388745219693707,-0.005362973934660691,0.005329880517075904,-0.0043078888077174434,"wx:deg/s, wy:deg/s, wz:deg/s"
0.8059325218200684,0.006616761573823,0.0049780826814547,0.0033416748361761,0.3088417503770219,0.0016541420482099,0.002655406948179,-0.0029542371630668,-0.0611584261059761,-0.0329829007387161,-0.0431706681847572,-0.1832426786422729,0.3198429942131042,-0.244140625,38737.0,38747.0,38815.0,38737.0,motor.m1,motor.m2,motor.m3,motor.m4,0.0611584261059761,1.0,14427,4.599342544058809e-11,/home/dzmitry/CrazySim/scripts/results/thrustfit_latest.json,0.06901567228489057,0.06905130983065895,0.0692938890910125,0.06901567228489057,0.2763765434914526,7.519957070959479e-06,9.72948490860024e-06,-1.4468766125003076e-06,0.005964552,-0.0010674159008869375,-0.0005756602147490658,-0.0007534703001099768,-0.0031981880724815544,0.005582313338455838,-0.004261057744126781,"wx:deg/s, wy:deg/s, wz:deg/s"
0.8563272953033447,0.0070722645801937,0.0043661974783257,0.0035890105274326,0.3151810470759102,0.0020933882333338,0.0033495535608381,-0.0031933651771396,-0.0683550834655761,-0.0493112131953239,-0.0554997101426124,0.0020206577610224,0.3441137075424194,-0.3065840601921081,38742.0,38732.0,38804.0,38762.0,motor.m1,motor.m2,motor.m3,motor.m4,0.0683550834655761,1.0,14477,4.599342544058809e-11,/home/dzmitry/CrazySim/scripts/results/thrustfit_latest.json,0.06903348990793912,0.06899785696151328,0.0692546194904305,0.06910478339684607,0.27639074975672895,1.0169736552549831e-05,3.5402975619163064e-06,-1.1062397335313248e-06,0.005964552,-0.001193021266949839,-0.0008606430284112758,-0.0009686526758910781,3.526713098581762e-05,0.006005917197860063,-0.0053509012844847655,"wx:deg/s, wy:deg/s, wz:deg/s"
0.9067389965057372,0.0069041307698916,0.0039588417392344,0.003531650454444,0.3440228446146288,0.0026893985923379,0.0040765572339296,-0.0034462031908333,-0.0663871839642524,-0.0649018734693527,-0.071054883301258,0.2469604462385177,0.2320079505443573,-0.3051756918430328,38738.0,38754.0,38816.0,38740.0,motor.m1,motor.m2,motor.m3,motor.m4,0.0663871839642524,1.0,14529,4.599342544058809e-11,/home/dzmitry/CrazySim/scripts/results/thrustfit_latest.json,0.06901923562552657,0.06907626158591444,0.06929745960662288,0.06902636258275914,0.27641931940082304,7.078074316171044e-06,1.017181251179982e-05,-1.2768379897971612e-06,0.005964552,-0.0011586749413033859,-0.0011327513827529595,-0.00124014166322729,0.0043102729090565796,0.0040493026278032055,-0.005326320619712524,"wx:deg/s, wy:deg/s, wz:deg/s"
0.9571249485015868,0.0063321093508179,0.0040704224953961,0.0032802461072755,0.4063238628870417,0.003389433491975,0.0047172149643301,-0.0036848417948931,-0.0540317557752132,-0.0727139189839363,-0.0866272673010826,0.3078590631484985,0.0222156941890716,-0.3051756918430328,38711.0,38767.0,38843.0,38723.0,motor.m1,motor.m2,motor.m3,motor.m4,0.0727139189839363,1.0,14577,4.599342544058809e-11,/home/dzmitry/CrazySim/scripts/results/thrustfit_latest.json,0.06892305771573898,0.06912261251825098,0.06939389829913273,0.06896579517460577,0.27640536370772845,9.73472043220517e-06,1.9457395738207896e-05,-1.3631883511709166e-06,0.005964552,-0.0009430320389109314,-0.001269097298298098,-0.0015119310364091133,0.005373154284046439,0.0003877370092154711,-0.005326320619712524,"wx:deg/s, wy:deg/s, wz:deg/s"
1.0075044631958008,0.0057529422907671,0.0045886978760776,0.0030333147472752,0.5094526462622391,0.0041106734424829,0.005217948462814,-0.0039308150298893,-0.0388755537569522,-0.0722422301769256,-0.1018857881426811,0.2414572983980178,-0.180154800415039,-0.3051756918430328,38715.0,38751.0,38855.0,38735.0,motor.m1,motor.m2,motor.m3,motor.m4,0.0722422301769256,1.0,14627,4.599342544058809e-11,/home/dzmitry/CrazySim/scripts/results/thrustfit_latest.json,0.06893730206357163,0.06906556742459813,0.06943678146517132,0.0690085458795791,0.27644819683292016,1.3716193554000507e-05,1.725152934518078e-05,-1.7891880028739898e-06,0.005964552,-0.0006785064115948674,-0.0012608647755709575,-0.0017782424640791833,0.004214224860015841,-0.0031442944305156775,-0.005326320619712524,"wx:deg/s, wy:deg/s, wz:deg/s"
1.0579323768615725,0.0055549373362837,0.0049404763389046,0.0029844810341398,0.6553766436176477,0.0047896518371999,0.0055936956778168,-0.004179841838777,-0.0259790308773517,-0.0602166801691055,-0.1177482977509498,0.133245438337326,-0.3181015849113464,-0.3051756918430328,38637.0,38799.0,38813.0,38823.0,motor.m1,motor.m2,motor.m3,motor.m4,0.0602166801691055,1.0,14677,4.599342544058809e-11,/home/dzmitry/CrazySim/scripts/results/thrustfit_latest.json,0.06865980275488656,0.06923677335145817,0.0692867483357523,0.06932245579152736,0.2765057802336244,2.2091468648982593e-05,1.6779157364693077e-05,3.6543501024804428e-06,0.005964552,-0.0004534196252870583,-0.0010509793335712668,-0.002055095484372708,0.002325571612249417,-0.005551920012515309,-0.005326320619712524,"wx:deg/s, wy:deg/s, wz:deg/s"
1.108332872390747,0.0059089002436139,0.0043382363927894,0.0032178597567132,0.8389693074807552,0.0052984938956797,0.0058545423671603,-0.0043925582431256,-0.0185441952198743,-0.0421504788100719,-0.1353347450494766,0.0832743272185325,-0.3662109076976776,-0.3662109076976776,38631.0,38811.0,38821.0,38825.0,motor.m1,motor.m2,motor.m3,motor.m4,0.0421504788100719,1.0,14727,4.599342544058809e-11,/home/dzmitry/CrazySim/scripts/results/thrustfit_latest.json,0.0686384798349049,0.0692796079484395,0.06931531356447754,0.06932959838652458,0.2765629997343465,2.2531549197389936e-05,1.9432142036114423e-05,3.9092445357493625e-06,0.005964552,-0.0003236572637194003,-0.0007356646365278562,-0.002362036893460463,0.0014534111923465238,-0.006391586096041521,-0.006391586096041521,"wx:deg/s, wy:deg/s, wz:deg/s"
1.1587166786193848,0.0066298394069135,0.0022095778105478,0.0036392983230408,1.0485227521040212,0.0056472443975508,0.0060504865832626,-0.0044093425385653,-0.0129934484139084,-0.0259242951869964,-0.1562191843986511,0.1839033663272857,-0.2930479049682617,-0.4393737316131592,38720.0,38732.0,38888.0,38728.0,motor.m1,motor.m2,motor.m3,motor.m4,0.0259242951869964,1.0,14777,4.599342544058809e-11,/home/dzmitry/CrazySim/scripts/results/thrustfit_latest.json,0.06895510956806658,0.06899785696151328,0.06955477847201424,0.06898360635857477,0.2764913513601689,1.8147967331283692e-05,1.903150471347162e-05,-3.151816720482325e-06,0.005964552,-0.00022677845601073657,-0.00045246430727200626,-0.0027265391225366194,0.0032097192479124074,-0.005114650807767616,-0.007668518263423524,"wx:deg/s, wy:deg/s, wz:deg/s"
1.209076166152954,0.0071929052340345,-0.0014334634243938,0.0039844130646832,1.266732546744249,0.0058633219450712,0.006160233169794,-0.004374555312097,-0.002027322538197,-0.0149675840511918,-0.1807159930467605,0.4393458366394043,-0.0936512500047683,-0.5501142740249634,38748.0,38724.0,38868.0,38716.0,motor.m1,motor.m2,motor.m3,motor.m4,0.0149675840511918,1.0,14827,4.599342544058809e-11,/home/dzmitry/CrazySim/scripts/results/thrustfit_latest.json,0.06905487409116347,0.06896935722742586,0.06948325317624307,0.06894086338049692,0.2764483478753293,1.2396442382670882e-05,1.4163060892264951e-05,-3.745181921637191e-06,0.005964552,-3.5383453291426153e-05,-0.0002612336227622884,-0.0031540890896771495,0.007668031404286744,-0.001634522661191562,-0.00960130534395393,"wx:deg/s, wy:deg/s, wz:deg/s"
1.2594366073608398,0.0069117033535806,-0.0059097487302462,0.0039078127229853,1.4732353768967543,0.0060090110637247,0.0060943798162043,-0.004366367124021,0.0254770591855049,-0.0124534675851464,-0.2099767327308654,0.8846132755279541,-0.0001179984974442,-0.6740698218345642,38751.0,38737.0,38877.0,38675.0,motor.m1,motor.m2,motor.m3,motor.m4,0.0254770591855049,1.0,14877,4.599342544058809e-11,/home/dzmitry/CrazySim/scripts/results/thrustfit_latest.json,0.06906556742459813,0.06901567228489057,0.06951543500599097,0.06879492481577774,0.2763915995312574,7.10272348068133e-06,2.078906656567594e-05,-4.5951226513896745e-06,0.005964552,0.00044465856651252527,-0.00021735401265119195,-0.0036647853387337457,0.015439414264814579,-2.059462292807404e-06,-0.01176473777934471,"wx:deg/s, wy:deg/s, wz:deg/s"
1.3098206520080566,0.0052149811588546,-0.010139664233836,0.0031211807341366,1.647515522185048,0.0061552613042294,0.0056720371358096,-0.0043970616534352,0.075822927057743,-0.0149411614984273,-0.2458421736955642,1.3492698669433594,0.0610351674258708,-0.7935340404510498,38791.0,38715.0,38859.0,38663.0,motor.m1,motor.m2,motor.m3,motor.m4,0.075822927057743,1.0,14927,4.599342544058809e-11,/home/dzmitry/CrazySim/scripts/results/thrustfit_latest.json,0.06920822431241869,0.06893730206357163,0.06945107879743008,0.06875224034133705,0.2763488455147574,1.7915756460812685e-06,1.3265402424625025e-05,-5.784188152171846e-06,0.005964552,0.001323359725657112,-0.000260772462219766,-0.004290755371247391,0.02354920167610742,0.0010652646310874375,-0.013849781732524689,"wx:deg/s, wy:deg/s, wz:deg/s"
1.3601884841918943,0.001916551715254,-0.0131473028552471,0.0015277787732983,1.7721222720524394,0.0063258348964154,0.0047073769383132,-0.0043933559209108,0.1463012397289276,-0.0155606465414166,-0.289456158876419,1.5824328660964966,-0.1809045374393463,-0.9792512059211732,38590.0,38900.0,38672.0,38846.0,motor.m1,motor.m2,motor.m3,motor.m4,0.1463012397289276,1.0,14977,4.599342544058809e-11,/home/dzmitry/CrazySim/scripts/results/thrustfit_latest.json,0.06849286184436104,0.06959771131095231,0.06878425245534509,0.06940461784881989,0.27627944345947836,3.0472116144004274e-06,1.501900626661029e-05,1.029013374403688e-05,0.005964552,0.0025534383330193234,-0.00027158451588678783,-0.005051963012569322,0.027618663705154416,-0.0031573798101139448,-0.017091157747449463,"wx:deg/s, wy:deg/s, wz:deg/s"
1.410556077957153,-0.002655833548291,-0.0145375269206142,-0.0007133595987778,1.8362101748299189,0.0064191087149083,0.0030575096607208,-0.0045357262715697,0.2195519059896469,-0.0042996299453079,-0.3424771428108215,1.2945594787597656,-0.4310635328292846,-1.1375608444213867,38556.0,38890.0,38660.0,38902.0,motor.m1,motor.m2,motor.m3,motor.m4,0.2195519059896469,1.0,15028,4.599342544058809e-11,/home/dzmitry/CrazySim/scripts/results/thrustfit_latest.json,0.0683722227451937,0.06956193302530207,0.06874157129243103,0.06960486807192456,0.27628059513485137,1.2780791409655254e-05,1.0118818519060189e-05,1.2245267363362815e-05,0.005964552,0.003831903638548398,-7.504269916296657e-05,-0.005977353754871662,0.022594325267259508,-0.007523477933149684,-0.019854182176920167,"wx:deg/s, wy:deg/s, wz:deg/s"
1.4609169960021973,-0.0077322764952064,-0.014632524347196,-0.0032235777353987,1.837482923582869,0.0063223922625184,0.0008725115912966,-0.0045868745073676,0.2807085216045379,0.0255509037524461,-0.4032021760940552,0.9151232242584229,-0.9391372203826904,-1.2938132286071775,38785.0,38639.0,38905.0,38671.0,motor.m1,motor.m2,motor.m3,motor.m4,0.2807085216045379,1.0,15078,4.599342544058809e-11,/home/dzmitry/CrazySim/scripts/results/thrustfit_latest.json,0.06918681639658682,0.06866691113077525,0.06961560390328433,0.06878069518584123,0.2762500266164877,1.681971841466885e-05,9.76510700057779e-06,-8.080858453449538e-06,0.005964552,0.004899287940404822,0.00044594739734035856,-0.007037205524047233,0.015971913324775922,-0.01639103662370555,-0.022581300745053337,"wx:deg/s, wy:deg/s, wz:deg/s"
1.51122784614563,-0.0123631563366638,-0.0141827683384975,-0.0055354647233174,1.783183212362042,0.005832627415657,-0.0017611610237509,-0.0045766690745949,0.3191775381565094,0.0781620591878891,-0.4723691344261169,0.3021316826343536,-1.3866291046142578,-1.465202808380127,38786.0,38634.0,38898.0,38666.0,motor.m1,motor.m2,motor.m3,motor.m4,0.3191775381565094,1.0,15128,4.599342544058809e-11,/home/dzmitry/CrazySim/scripts/results/thrustfit_latest.json,0.06919038415259167,0.0686491408809549,0.06959055491792746,0.06876291021812474,0.27619299016959875,1.5932143177673896e-05,8.878444273144673e-06,-8.164803487825277e-06,0.005964552,0.005570698939240921,0.00136418528296735,-0.008244396680531434,0.0052731926365600455,-0.024201243379499696,-0.02557261321570078,"wx:deg/s, wy:deg/s, wz:deg/s"
1.5616044998168943,-0.0157860228558932,-0.0137833363572138,-0.0072754651683458,1.688985329173842,0.0048048719763755,-0.0045809154398739,-0.0046123587526381,0.327893853187561,0.1438263654708862,-0.5499503016471863,-0.1255896687507629,-1.2747645378112793,-1.6479029655456543,38489.0,38921.0,38493.0,39061.0,motor.m1,motor.m2,motor.m3,motor.m4,0.327893853187561,1.0,15178,4.599342544058809e-11,/home/dzmitry/CrazySim/scripts/results/thrustfit_latest.json,0.068134803993168,0.06967287565253776,0.06814896665667707,0.07017500795491687,0.2761316542572997,1.6005143942534033e-05,-1.5127058804971505e-05,2.1258337069535985e-05,0.005964552,0.005722827335173843,0.002510243628643649,-0.009598443486079395,-0.0021919532261898468,-0.02224883837247057,-0.028761332502150343,"wx:deg/s, wy:deg/s, wz:deg/s"
1.611884355545044,-0.0176763587927102,-0.0133458856317568,-0.0082876954533672,1.5772855874286411,0.0031429617665708,-0.0074587794952094,-0.0046606585383415,0.3134926259517669,0.2134489268064499,-0.6375061869621277,-0.4552303552627563,-1.2703737020492554,-1.7089873552322388,38444.0,38982.0,38410.0,39116.0,motor.m1,motor.m2,motor.m3,motor.m4,0.3134926259517669,1.0,15228,4.599342544058809e-11,/home/dzmitry/CrazySim/scripts/results/thrustfit_latest.json,0.06797557544419407,0.06989144022768574,0.06785539296775449,0.07037276749605366,0.27609517613568796,1.1195488549778625e-05,-1.8646802089032546e-05,2.644228640362071e-05,0.005964552,0.005471478503581355,0.0037253865576209358,-0.011126581964323675,-0.007945268554358594,-0.022172203831508943,-0.02982745622375251,"wx:deg/s, wy:deg/s, wz:deg/s"
1.6622459888458252,-0.0182689869118558,-0.0119570281248125,-0.0086934665440272,1.4723831252679616,0.0009573734132573,-0.0099914036691188,-0.0047800070606172,0.2825275361537933,0.2743010222911834,-0.7259156703948975,-0.7937139868736267,-1.0120223760604858,-1.7700190544128418,38881.0,38571.0,38773.0,38723.0,motor.m1,motor.m2,motor.m3,motor.m4,0.2825275361537933,1.0,15278,4.599342544058809e-11,/home/dzmitry/CrazySim/scripts/results/thrustfit_latest.json,0.06952974043309261,0.06842543276905304,0.06914401049950296,0.06896579517460577,0.27606497887625436,4.7936066308556895e-06,-2.8708862513414108e-05,-7.649675058708728e-06,0.005964552,0.004931035733431009,0.00478745598056751,-0.012669618540212887,-0.01385292239007584,-0.01766312256611172,-0.030892660322540757,"wx:deg/s, wy:deg/s, wz:deg/s"
1.7125205993652344,-0.0181645769866847,-0.0083022708735784,-0.0087920146503669,1.397397627562865,-0.0016587048303335,-0.0121684446930885,-0.004874485079199,0.2399637699127197,0.3115362823009491,-0.8145906925201416,-1.0533055067062378,-0.4474131464958191,-1.7700190544128418,38912.0,38574.0,38732.0,38730.0,motor.m1,motor.m2,motor.m3,motor.m4,0.3115362823009491,1.0,15328,4.599342544058809e-11,/home/dzmitry/CrazySim/scripts/results/thrustfit_latest.json,0.06964065739599691,0.06843607725746989,0.06899785696151328,0.06899073147607032,0.2760653230910504,-2.732532692379438e-06,-3.712109424560588e-05,-7.227281202861402e-06,0.005964552,0.004188157870475065,0.0054373338655740976,-0.014217289640577216,-0.018383649121411064,-0.007808832523059773,-0.030892660322540757,"wx:deg/s, wy:deg/s, wz:deg/s"
1.7628998756408691,-0.0179848228686846,-0.0014334286720772,-0.0088885773466255,1.3685309106208794,-0.0039679771289229,-0.0135836228728294,-0.0048914179205894,0.1960205137729644,0.3205448091030121,-0.8854746222496033,-1.179042100906372,0.0003372833598405,-1.6860677003860474,38926.0,38610.0,38710.0,38678.0,motor.m1,motor.m2,motor.m3,motor.m4,0.3205448091030121,1.0,15377,4.599342544058809e-11,/home/dzmitry/CrazySim/scripts/results/thrustfit_latest.json,0.06969077790348913,0.06856387569324131,0.06891949685874794,0.06880559800409206,0.2759797484595704,-1.641632075060403e-05,-3.1403104023349556e-05,-7.400822473273532e-06,0.005964552,0.003421203366789121,0.005594562319024252,-0.015454447601108616,-0.020578166680447412,5.886705141405542e-06,-0.029427432783265792,"wx:deg/s, wy:deg/s, wz:deg/s"
1.8132050037384035,-0.0179746220262885,0.0083934725691403,-0.0090930407889189,1.3922647818601026,-0.0067549953237175,-0.0148161258548498,-0.0050256229005753,0.1262915730476379,0.3117380738258362,-0.9701711535453796,-1.9512083530426023,0.4501229524612427,-1.7089850902557373,38904.0,38610.0,38712.0,38698.0,motor.m1,motor.m2,motor.m3,motor.m4,0.3117380738258362,1.0,15427,4.599342544058809e-11,/home/dzmitry/CrazySim/scripts/results/thrustfit_latest.json,0.06961202520084422,0.06856387569324131,0.06892661866471686,0.06887677374982988,0.2759792933086323,-1.1547762865703106e-05,-3.094744237419362e-05,-6.549044828650945e-06,0.005964552,0.0022042037672042112,0.005440855792085997,-0.016932680937238334,-0.03405501015300933,0.007856127559246598,-0.02982741669245508,"wx:deg/s, wy:deg/s, wz:deg/s"
1.8635525703430176,-0.0177553081679272,0.0194959322347267,-0.009199483966221,1.4625151153515137,-0.0093388482928276,-0.0152364466339349,-0.0051853256300091,0.0164867099374532,0.2841442823410034,-1.0532338619232178,-2.833725929260254,0.6592658758163452,-1.586641550064087,38933.0,38591.0,38703.0,38701.0,motor.m1,motor.m2,motor.m3,motor.m4,0.2841442823410034,1.0,15477,4.599342544058809e-11,/home/dzmitry/CrazySim/scripts/results/thrustfit_latest.json,0.06971584491826878,0.06849641166292997,0.06889457343544252,0.0688874532852369,0.27599428330187814,-1.3337125676098852e-05,-3.758170625912938e-05,-7.3158415681468555e-06,0.005964552,0.00028774737122982675,0.004959253277566891,-0.018382398684055487,-0.049457847564727354,0.011506360179039284,-0.027692119097564763,"wx:deg/s, wy:deg/s, wz:deg/s"
1.9138219356536863,-0.0163718608733065,0.0290989991905015,-0.0087091793780774,1.5602289448713962,-0.0116337332874536,-0.0144498478621244,-0.005280268844217,-0.1435263007879257,0.2468321919441223,-1.1362223625183103,-3.860360145568848,0.6699589490890503,-1.6580859422683716,38892.0,38604.0,38718.0,38714.0,motor.m1,motor.m2,motor.m3,motor.m4,0.2468321919441223,1.0,15528,4.599342544058809e-11,/home/dzmitry/CrazySim/scripts/results/thrustfit_latest.json,0.06956908794653731,0.06854256767512949,0.06894798629030804,0.06893374083863318,0.27599338275060803,-7.127783274492577e-06,-3.138051941172122e-05,-6.207701275144227e-06,0.005964552,-0.002505006511957035,0.004308034449339557,-0.019830821260733125,-0.06737599485294399,0.011692989514804993,-0.028939058973615702,"wx:deg/s, wy:deg/s, wz:deg/s"
1.9641480445861816,-0.012638208441172,0.0344276492042114,-0.0070071341896045,1.6558163125682095,-0.0134892659261822,-0.0120911421254277,-0.0053095426410436,-0.3382935523986816,0.2102426141500473,-1.218854308128357,-4.088906288146973,0.8154382705688477,-1.64794921875,38858.0,38604.0,38748.0,38698.0,motor.m1,motor.m2,motor.m3,motor.m4,0.3382935523986816,1.0,15578,4.599342544058809e-11,/home/dzmitry/CrazySim/scripts/results/thrustfit_latest.json,0.06944750432638512,0.06854256767512949,0.06905487409116347,0.06887677374982988,0.27592171984250796,-1.8111489761595337e-06,-2.253192560758288e-05,-6.459830460221966e-06,0.005964552,-0.0059043363276249546,0.003669425844918345,-0.021273020778957312,-0.07136487753366466,0.014232082668194765,-0.02876213977285577,"wx:deg/s, wy:deg/s, wz:deg/s"
2.014521837234497,-0.005681047713014,0.0337310670599232,-0.0036342745424834,1.712158121856968,-0.0149379391223192,-0.008020925335586,-0.0054946495220065,-0.5341325998306274,0.171148270368576,-1.3016135692596436,-3.1739373207092285,0.910559058189392,-1.6479501724243164,38911.0,38701.0,38705.0,38599.0,motor.m1,motor.m2,motor.m3,motor.m4,0.5341325998306274,1.0,15628,4.599342544058809e-11,/home/dzmitry/CrazySim/scripts/results/thrustfit_latest.json,0.06963707804964885,0.0688874532852369,0.06890169395359552,0.06852481352300804,0.2759510388114893,-3.4038739606747064e-05,-1.1555074348558458e-05,-6.71909881384418e-06,0.005964552,-0.009322372509281756,0.0029871008270251002,-0.02271744237221603,-0.05539565649830324,0.015892253599263526,-0.028762156417612584,"wx:deg/s, wy:deg/s, wz:deg/s"
2.0648505687713623,0.0045135730132547,0.0270342315784552,0.0014365294756099,1.690207137925628,-0.0159293618053197,-0.0024589216336607,-0.0057599041610956,-0.682996928691864,0.1196654066443443,-1.3845696449279783,-1.7210112810134888,1.5110867023468018,-1.64794921875,38935.0,38739.0,38703.0,38559.0,motor.m1,motor.m2,motor.m3,motor.m4,0.682996928691864,1.0,15678,4.599342544058809e-11,/home/dzmitry/CrazySim/scripts/results/thrustfit_latest.json,0.0697230077503732,0.06902279905814944,0.06889457343544252,0.06838286309420225,0.2760232433381674,-4.551947864521455e-05,-5.843448880488069e-06,-7.228554094885933e-06,0.005964552,-0.011920545186681954,0.002088555346681707,-0.024165299027162027,-0.030037313317650752,0.026373438239055216,-0.02876213977285577,"wx:deg/s, wy:deg/s, wz:deg/s"
2.1152877807617188,0.0168991599623565,0.0160058551414265,0.0076978221581504,1.5548969252222429,-0.0162586160004138,0.0040123090147972,-0.0059571014717221,-0.7448418736457825,0.033944945782423,-1.4680538177490234,0.4453501403331756,2.519477367401123,-1.64794921875,38957.0,38765.0,38701.0,38533.0,motor.m1,motor.m2,motor.m3,motor.m4,0.7448418736457825,1.0,15728,4.599342544058809e-11,/home/dzmitry/CrazySim/scripts/results/thrustfit_latest.json,0.0698018231880504,0.06911548059372846,0.0688874532852369,0.06829067424019654,0.2760954313072123,-5.391446394670783e-05,-2.776470027728451e-06,-7.653245740301686e-06,0.005964552,-0.012999943101842484,0.000592451068314244,-0.025622372716193227,0.007772826273032711,0.043973175490628444,-0.02876213977285577,"wx:deg/s, wy:deg/s, wz:deg/s"
2.165681838989258,0.0293829015041939,0.0032409464470967,0.0141125400262531,1.2816843771427988,-0.0155861461535096,0.0104756001383066,-0.0058312988840043,-0.6912322044372559,-0.0995194911956787,-1.5533227920532229,3.1512067317962646,3.607722282409668,-1.7089860439300537,38985.0,38817.0,38653.0,38485.0,motor.m1,motor.m2,motor.m3,motor.m4,0.6912322044372559,1.0,15778,4.599342544058809e-11,/home/dzmitry/CrazySim/scripts/results/thrustfit_latest.json,0.06990219813588973,0.06930103021422011,0.0687166800645234,0.06812064280144854,0.2760405512160818,-7.33430700082748e-05,-1.5905041643752768e-07,-7.140792579077987e-06,0.005964552,-0.012064277863248672,-0.0017369427912741016,-0.02711059706759995,0.0549989328808547,0.0629666323256134,-0.02982743333721189,"wx:deg/s, wy:deg/s, wz:deg/s"
2.2159957885742188,0.0394509880366744,-0.0088713222888673,0.0194239906747245,0.8613976140163118,-0.0134914582595229,0.0160587560385465,-0.0055683958344161,-0.5174481272697449,-0.2848049700260162,-1.6448793411254885,3.750012874603272,3.377134323120117,-1.7723180055618286,38707.0,38809.0,38871.0,38509.0,motor.m1,motor.m2,motor.m3,motor.m4,0.5174481272697449,1.0,15828,4.599342544058809e-11,/home/dzmitry/CrazySim/scripts/results/thrustfit_latest.json,0.06890881483969594,0.0692724679290741,0.06949397962494405,0.06820563202860949,0.27588089442232355,-1.493180457171105e-05,5.121202125709431e-05,-5.5153884708558426e-06,0.005964552,-0.009031173529135704,-0.004970784452997742,-0.028708560300674743,0.06545007165400434,0.058942113220556105,-0.030932784589433084,"wx:deg/s, wy:deg/s, wz:deg/s"
2.2663323879241943,0.0449114754479515,-0.0188850011043367,0.0225262263424706,0.3010117053705889,-0.0097741745412349,0.0196123830974102,-0.0053512584418058,-0.278804749250412,-0.4843305647373199,-1.735303282737732,5.504095077514648,3.827062606811523,-1.8188360929489136,38703.0,38845.0,38799.0,38517.0,motor.m1,motor.m2,motor.m3,motor.m4,0.4843305647373199,1.0,15878,4.599342544058809e-11,/home/dzmitry/CrazySim/scripts/results/thrustfit_latest.json,0.06889457343544252,0.06940104457360399,0.06923677335145817,0.06823397354531338,0.2757663649058181,-2.5571004480523865e-05,4.678739927349443e-05,-2.9603781492772304e-06,0.005964552,-0.004866060844616882,-0.008453163022709776,-0.030286755804439503,0.09606458144544312,0.06679484316881824,-0.03174467837606816,"wx:deg/s, wy:deg/s, wz:deg/s"
2.316715955734253,0.0445009283394082,-0.0262136617605096,0.02276415008969,-0.3748293325158364,-0.0044811363331973,0.0207514148205518,-0.0053782602772116,0.0071176788769662,-0.678957998752594,-1.823387622833252,5.685262203216553,3.477478504180908,-1.635022759437561,38704.0,38790.0,38756.0,38606.0,motor.m1,motor.m2,motor.m3,motor.m4,0.678957998752594,1.0,15928,4.599342544058809e-11,/home/dzmitry/CrazySim/scripts/results/thrustfit_latest.json,0.0688981336485256,0.06920465609647959,0.06908339148672625,0.06854966997988603,0.2757358512116175,-1.4561576630180411e-05,2.6047562598621298e-05,-1.3551406010779568e-06,0.005964552,0.00012422693150271257,-0.011850052560984318,-0.031824117558552786,0.0992265442853158,0.060693449565284247,-0.02853653049722863,"wx:deg/s, wy:deg/s, wz:deg/s"
2.367106914520264,0.0382745727151256,-0.0304945084533616,0.0201267302290528,-1.1254697129197155,0.0024441715795546,0.019275089725852,-0.0057642981410026,0.2882271707057953,-0.8329939246177673,-1.9004571437835691,4.580820083618164,1.8985838890075684,-1.342677116394043,38531.0,38717.0,38893.0,38719.0,motor.m1,motor.m2,motor.m3,motor.m4,0.8329939246177673,1.0,15977,4.599342544058809e-11,/home/dzmitry/CrazySim/scripts/results/thrustfit_latest.json,0.06828358536552023,0.06894442478940906,0.0695726655451352,0.0689515478831939,0.2757522235832584,4.018230147539428e-05,3.974066966073433e-05,2.3692251466755042e-07,0.005964552,0.005030513122523876,-0.014538486633689488,-0.03316923445207057,0.07995039290061892,0.03313653998850064,-0.023434136472259184,"wx:deg/s, wy:deg/s, wz:deg/s"
2.4174604415893555,0.02753069743097,-0.0308513752810038,0.0152106126437558,-1.8997933899509445,0.0100964652374386,0.0155463246628642,-0.00634127529338,0.5166081190109253,-0.900943636894226,-1.9616855382919312,3.593651056289673,0.2184350490570068,-0.9960885047912598,38556.0,38694.0,38836.0,38830.0,motor.m1,motor.m2,motor.m3,motor.m4,0.900943636894226,1.0,16027,4.599342544058809e-11,/home/dzmitry/CrazySim/scripts/results/thrustfit_latest.json,0.0683722227451937,0.06886253565710308,0.06936888923606914,0.06934745648378753,0.27595110412215346,4.5929206844356855e-05,1.5864115589921297e-05,2.7966600938681883e-06,0.005964552,0.009016512619275358,-0.0157244328386965,-0.0342378715319515,0.06272104310002687,0.0038124108078001037,-0.017385024049874794,"wx:deg/s, wy:deg/s, wz:deg/s"
2.467756509780884,0.0142907949265301,-0.0257155349976071,0.0089650740999023,-2.6437329547172093,0.0177980214357376,0.0100659122690558,-0.0068837660364806,0.67535400390625,-0.8584437966346741,-2.003458023071289,2.102035522460937,-2.177280902862549,-0.5522368550300598,38656.0,38690.0,38704.0,38938.0,motor.m1,motor.m2,motor.m3,motor.m4,0.8584437966346741,1.0,16077,4.599342544058809e-11,/home/dzmitry/CrazySim/scripts/results/thrustfit_latest.json,0.06872734718170556,0.0688482990361659,0.0688981336485256,0.0697337526884312,0.2762075325548283,3.2743443691645065e-05,-2.215468274880273e-05,5.70551684113223e-06,0.005964552,0.011787150984690709,-0.014982670694595681,-0.03496693892809051,0.03668744086082257,-0.03800072049574631,-0.009638351371133154,"wx:deg/s, wy:deg/s, wz:deg/s"
2.518049716949463,0.0005899190699469,-0.0135706661546168,0.002345480877176,-3.308395791325379,0.0245096925646066,0.0035835967864841,-0.0071527054533362,0.7418738007545471,-0.695797860622406,-2.0237512588500977,-0.0775617510080337,-4.392186641693115,-0.0567608922719955,38491.0,38737.0,38805.0,38995.0,motor.m1,motor.m2,motor.m3,motor.m4,0.7418738007545471,1.0,16127,4.599342544058809e-11,/home/dzmitry/CrazySim/scripts/results/thrustfit_latest.json,0.06814188514094884,0.06901567228489057,0.06925818899418552,0.0699380638090483,0.27635381022907324,6.319955669922698e-05,6.011282201447751e-06,9.266897543711299e-06,0.005964552,0.01294814045745124,-0.012143963596193586,-0.03532112270831424,-0.0013537079287022189,-0.0766581182596573,-0.0009906644565161264,"wx:deg/s, wy:deg/s, wz:deg/s"
2.5684807300567627,-0.0120717344825548,0.0056273846355837,-0.0039511162585559,-3.856081371384948,0.029289050027728,-0.0029166457243263,-0.0069495001807808,0.6912807822227478,-0.427933394908905,-2.0215845108032227,-2.76506781578064,-6.284525871276856,0.4408012628555298,38314.0,38732.0,38874.0,39104.0,motor.m1,motor.m2,motor.m3,motor.m4,0.6912807822227478,1.0,16177,4.599342544058809e-11,/home/dzmitry/CrazySim/scripts/results/thrustfit_latest.json,0.06751662820869814,0.06899785696151328,0.06950470690152669,0.0703295962271981,0.2763487882989362,0.00010291435671391487,2.034652224145589e-05,1.3754961197273133e-05,0.005964552,0.012065125705548834,-0.007468846720397532,-0.03528330582083511,-0.048259537426300195,-0.10968566838054648,0.007693433383777977,"wx:deg/s, wy:deg/s, wz:deg/s"
2.618839263916016,-0.0228068960795151,0.0288677240456943,-0.009511882495042,-4.261012770980498,0.0314245000481605,-0.0083029670640826,-0.0067095328122377,0.5172021985054016,-0.105188138782978,-1.990243673324585,-4.044288158416748,-5.7850341796875,1.0991337299346924,38611.0,38753.0,38489.0,39143.0,motor.m1,motor.m2,motor.m3,motor.m4,0.5172021985054016,1.0,16227,4.599342544058809e-11,/home/dzmitry/CrazySim/scripts/results/thrustfit_latest.json,0.06856742735154726,0.06907269677348882,0.068134803993168,0.07046995128205565,0.2762448794002597,2.9903565655814684e-05,-5.672621387532934e-05,1.6941813173409765e-05,0.005964552,0.009026881262472553,-0.0018358793558077072,-0.03473630501650045,-0.07058614426379027,-0.10096789377595614,0.01918350250708654,"wx:deg/s, wy:deg/s, wz:deg/s"
2.669227123260498,-0.031279751211756,0.0500710722801674,-0.0141647767449896,-4.519575995915802,0.0307842046022415,-0.0116297164931893,-0.0062485854141414,0.2268231809139251,0.2285682111978531,-1.926100254058838,-7.040544509887695,-6.581669807434082,1.7971662282943726,38446.0,38840.0,38572.0,39098.0,motor.m1,motor.m2,motor.m3,motor.m4,0.2285682111978531,1.0,16277,4.599342544058809e-11,/home/dzmitry/CrazySim/scripts/results/thrustfit_latest.json,0.06798264831315833,0.06938317957732723,0.06842898083987181,0.07030801556006028,0.27610282429041766,4.250622379284221e-05,-1.4833607136606735e-05,1.9561141851130747e-05,0.005964552,0.003958811326794753,0.003989267850796309,-0.033616791156826,-0.12288068283075075,-0.1148718084188259,0.03136646788938488,"wx:deg/s, wy:deg/s, wz:deg/s"
2.719520330429077,-0.0370777959495407,0.061449860244294,-0.0176565359577796,-4.645021775297019,0.0272432677447795,-0.0117437727749347,-0.0056459750048816,-0.2025449872016906,0.5690646767616272,-1.8271151781082156,-8.540216445922852,-5.733416557312012,2.4966299533843994,38284.0,38742.0,38682.0,39184.0,motor.m1,motor.m2,motor.m3,motor.m4,0.5690646767616272,1.0,16327,4.599342544058809e-11,/home/dzmitry/CrazySim/scripts/results/thrustfit_latest.json,0.0674109380766412,0.06903348990793912,0.0688198302096604,0.07061765489046952,0.2758819130847102,9.278477058203768e-05,-5.433458334847072e-06,2.040101356604111e-05,0.005964552,-0.003535076910079277,0.009932052266287657,-0.03188917567115098,-0.14905489581432202,-0.10006699631345277,0.043574412890470315,"wx:deg/s, wy:deg/s, wz:deg/s"
2.76979923248291,-0.0393183627109629,0.0567289830771135,-0.0194604136927882,-4.666204908172775,0.0211276412010192,-0.0080069620162248,-0.0052908100187778,-0.6522650718688965,0.8495205640792847,-1.6882840394973757,-6.596877574920654,-4.232434272766113,3.102562189102173,38521.0,38927.0,38415.0,38985.0,motor.m1,motor.m2,motor.m3,motor.m4,0.8495205640792847,1.0,16377,4.599342544058809e-11,/home/dzmitry/CrazySim/scripts/results/thrustfit_latest.json,0.06824814651134975,0.06969435862963995,0.06787306019230185,0.06990219813588973,0.2757177634691813,-5.184651196741153e-06,-1.8070700584228022e-05,2.072890616227496e-05,0.005964552,-0.011384173099869686,0.014826930906582988,-0.029466115198099198,-0.11513723403334432,-0.07386991343402044,0.05414992544771585,"wx:deg/s, wy:deg/s, wz:deg/s"
2.820075511932373,-0.0365035603931981,0.0343428447693264,-0.0187120467921914,-4.619884744233932,0.0129951825365424,-0.0009065649937838,-0.0051948172040283,-0.98236483335495,1.047041416168213,-1.5205153226852417,-4.916263580322266,-3.2112302780151367,3.590214729309082,38261.0,38909.0,38645.0,39005.0,motor.m1,motor.m2,motor.m3,motor.m4,1.047041416168213,1.0,16427,4.599342544058809e-11,/home/dzmitry/CrazySim/scripts/results/thrustfit_latest.json,0.06732996504138315,0.06962991963291326,0.06868823846612576,0.06997393868089195,0.27562206182131416,5.277106665436005e-05,3.144188567968161e-05,2.1386824546204184e-05,0.005964552,-0.01714550079784929,0.018274320116879506,-0.026537998707881497,-0.08580498637250825,-0.056046541391097014,0.06266106788004044,"wx:deg/s, wy:deg/s, wz:deg/s"
2.87048888206482,-0.0269561463955579,-0.000653226519652,-0.0144480415269052,-4.5432456155837855,0.0034283185377717,0.0084219379350543,-0.0051994076929986,-1.1377731561660769,1.1701092720031738,-1.330980658531189,0.1906912326812744,-1.323518991470337,3.978838443756104,38238.0,39042.0,38670.0,38862.0,motor.m1,motor.m2,motor.m3,motor.m4,1.1701092720031738,1.0,16477,4.599342544058809e-11,/home/dzmitry/CrazySim/scripts/results/thrustfit_latest.json,0.06724904066716922,0.07010675568928033,0.06877713800832423,0.06946180276248609,0.2755947371272599,2.737747684518387e-05,6.736455830642701e-05,2.1128708379328535e-05,0.005964552,-0.019857887715905666,0.02042225940456929,-0.023229994771731603,0.0033281898649748527,-0.023099764113832126,0.06944383124847123,"wx:deg/s, wy:deg/s, wz:deg/s"
2.9208123683929443,-0.0098569175727107,-0.0368987453143057,-0.0061450130543934,-4.466592555556735,0.0034283185377717,0.0084219379350543,-0.0051994076929986,-1.1377731561660769,1.1701092720031738,-1.330980658531189,0.1906912326812744,-1.323518991470337,3.978838443756104,38238.0,39042.0,38670.0,38862.0,motor.m1,motor.m2,motor.m3,motor.m4,1.1701092720031738,1.0,16477,4.599342544058809e-11,/home/dzmitry/CrazySim/scripts/results/thrustfit_latest.json,0.06724904066716922,0.07010675568928033,0.06877713800832423,0.06946180276248609,0.2755947371272599,2.737747684518387e-05,6.736455830642701e-05,2.1128708379328535e-05,0.005964552,-0.019857887715905666,0.02042225940456929,-0.023229994771731603,0.0033281898649748527,-0.023099764113832126,0.06944383124847123,"wx:deg/s, wy:deg/s, wz:deg/s"
2.9716992378234863,0.0141030807863282,-0.0610419257426738,0.0059233102033685,-4.404389010514413,-0.0166077502071857,0.0242049265652894,-0.003832256887108,-0.4300932288169861,1.006967544555664,-0.903883159160614,11.275479316711426,4.54052734375,4.360194206237793,38513.0,39305.0,38295.0,38523.0,motor.m1,motor.m2,motor.m3,motor.m4,1.006967544555664,1.0,16579,4.599342544058809e-11,/home/dzmitry/CrazySim/scripts/results/thrustfit_latest.json,0.06821980205106663,0.07105446222476769,0.06744968151243616,0.06825523354628904,0.2749791793345595,-0.00011064982573038206,6.290235233529385e-05,2.1712235002990278e-05,0.005964552,-0.007506542933389764,0.01757489911321904,-0.01577573718068066,0.19679423881713487,0.07924715192526988,0.07609974492523017,"wx:deg/s, wy:deg/s, wz:deg/s"
3.0220558643341064,0.0408801510624849,-0.0620020286698067,0.0197417214716876,-4.353309953388814,-0.0244406927376985,0.0249746013432741,-0.0032037433702498,0.32289719581604,0.6516904830932617,-0.6667332053184509,13.951675415039062,8.497343063354492,4.397378921508789,38752.0,39272.0,38006.0,38510.0,motor.m1,motor.m2,motor.m3,motor.m4,0.6516904830932617,1.0,16628,4.599342544058809e-11,/home/dzmitry/CrazySim/scripts/results/thrustfit_latest.json,0.06906913205305006,0.0709351993868698,0.06643548099397344,0.0682091743962435,0.27464898683013683,-0.000166149957540791,2.863591878040587e-06,2.1709542177965953e-05,0.005964552,0.005635619212446756,0.011374144633889858,-0.011636689665182337,0.24350267216197805,0.148306614127037,0.07674874063812566,"wx:deg/s, wy:deg/s, wz:deg/s"
3.0724644660949707,0.0649246401671646,-0.0376882638926242,0.0324731362249456,-4.286456454863062,-0.0281713102012872,0.0205472130328416,-0.0036607757210731,0.9465986490249634,0.2241297960281372,-0.4588436186313629,10.362710952758787,9.369792938232422,4.676189422607422,38367.0,39295.0,38419.0,38467.0,motor.m1,motor.m2,motor.m3,motor.m4,0.9465986490249634,1.0,16678,4.599342544058809e-11,/home/dzmitry/CrazySim/scripts/results/thrustfit_latest.json,0.06770354976707725,0.07101831139237139,0.06788719562770307,0.06805693565210746,0.27466599243925915,-8.61096262687812e-05,9.749566962758251e-05,2.078349128371268e-05,0.005964552,0.01652126312041582,0.003911802892514304,-0.00800833189688248,0.1808634255581194,0.16353373700226945,0.08161490187143207,"wx:deg/s, wy:deg/s, wz:deg/s"
3.122877359390259,0.0794060515356259,0.0042772671131281,0.0405769109065616,-4.158634740881699,-0.0281876735389232,0.0108836768195033,-0.0041070133447647,1.3937638998031616,-0.3526191711425781,-0.207970842719078,4.272167205810547,12.09495735168457,4.773359298706055,38664.0,39110.0,38170.0,38604.0,motor.m1,motor.m2,motor.m3,motor.m4,1.3937638998031616,1.0,16728,4.599342544058809e-11,/home/dzmitry/CrazySim/scripts/results/thrustfit_latest.json,0.0687557968749461,0.07035118020586256,0.06701007060289683,0.06854256767512949,0.274659615358835,-0.00011018450288625189,1.949474019198247e-06,1.865640531436392e-05,0.005964552,0.024325769047001518,-0.006154365542091363,-0.0036297759535951876,0.07456338393712027,0.21109682867518947,0.08331083614310816,"wx:deg/s, wy:deg/s, wz:deg/s"
3.1732749938964844,0.0786126975289754,0.0484532526019673,0.0410320393564229,-3.911704003802737,-0.0229057297110557,-0.001076592830941,-0.0042346362024545,1.4372899532318115,-0.9819833040237428,0.0487419702112674,-5.101868629455566,11.415834426879885,4.722835540771484,38664.0,38854.0,38196.0,38822.0,motor.m1,motor.m2,motor.m3,motor.m4,1.4372899532318115,1.0,16778,4.599342544058809e-11,/home/dzmitry/CrazySim/scripts/results/thrustfit_latest.json,0.0687557968749461,0.06943320736207376,0.06710139128500393,0.06931888463200903,0.2746092801540328,-5.483057792021349e-05,-4.774256865620061e-05,1.7266804453684216e-05,0.005964552,0.025085441989730426,-0.017138841854826795,0.0008507078640956123,-0.0890444055882102,0.19924389761157385,0.0824290302166693,"wx:deg/s, wy:deg/s, wz:deg/s"
3.2238929271698,0.0600669257606744,0.0776610963576596,0.0324327967463524,-3.481248611558069,-0.0122078312560915,-0.0118031986057758,-0.0039598476141691,0.986167311668396,-1.5335280895233154,0.3007656037807464,-11.979880332946776,8.258676528930664,4.564180850982666,38721.0,38711.0,38099.0,38953.0,motor.m1,motor.m2,motor.m3,motor.m4,1.5335280895233154,1.0,16827,4.599342544058809e-11,/home/dzmitry/CrazySim/scripts/results/thrustfit_latest.json,0.06895867134492613,0.06892305771573898,0.06676101165078693,0.06978748979694609,0.2744302305083981,-4.133005600089404e-05,-9.49248450357351e-05,1.783916693643442e-05,0.005964552,0.017211866564154604,-0.026765114334000212,0.0052493500627227305,-0.20908835580483576,0.14414109728701682,0.07965998350612419,"wx:deg/s, wy:deg/s, wz:deg/s"
3.274258852005005,0.0265042571994043,0.0797666198883996,0.0160052571424456,-2.816391671454362,0.0021312127355486,-0.0172758940607309,-0.0036608590744435,0.2108111232519149,-1.8336139917373655,0.5304862260818481,-15.661386489868164,1.8525463342666624,4.458286285400391,38470.0,38564.0,38346.0,39040.0,motor.m1,motor.m2,motor.m3,motor.m4,1.8336139917373655,1.0,16880,4.599342544058809e-11,/home/dzmitry/CrazySim/scripts/results/thrustfit_latest.json,0.06806755144062684,0.06840059884895353,0.06762945560051496,0.07009957317198982,0.2741971790620852,3.9087232970656804e-05,-6.624917505759342e-05,1.671962328660527e-05,0.005964552,0.0036793482005734904,-0.03200260136645313,0.009258731281607268,-0.273342759675557,0.032333033078704713,0.07781177467674442,"wx:deg/s, wy:deg/s, wz:deg/s"
3.324622392654419,-0.0145724002322808,0.0539210948371625,-0.0045626472265726,-1.87888121899232,0.0193229559808969,-0.0154712162911891,-0.0031856084242463,-0.7331507205963135,-1.7592209577560425,0.7660400867462158,-15.482576370239258,-5.026299953460693,4.2723002433776855,38096.0,38296.0,38744.0,39216.0,motor.m1,motor.m2,motor.m3,motor.m4,1.7592209577560425,1.0,16927,4.599342544058809e-11,/home/dzmitry/CrazySim/scripts/results/thrustfit_latest.json,0.06675049824363259,0.06745320419488408,0.0690406176010665,0.07073304319621487,0.273977363235798,0.00017266870912170532,-3.068130896080297e-05,1.4285886655342303e-05,0.005964552,-0.012795893987774675,-0.030704197982931017,0.013369921715984442,-0.27022193435214764,-0.08772548338072686,0.07456570588069568,"wx:deg/s, wy:deg/s, wz:deg/s"
3.375049114227295,-0.0522822789404054,0.0106820408048437,-0.0238125068765397,-0.6578626587351305,0.0346701703965663,-0.0061783934943377,-0.0021287736017256,-1.4645689725875854,-1.2421294450759888,0.9897451996803284,-10.558809280395508,-12.925660133361816,4.144388675689697,37398.0,37588.0,39452.0,39738.0,motor.m1,motor.m2,motor.m3,motor.m4,1.4645689725875854,1.0,16978,4.599342544058809e-11,/home/dzmitry/CrazySim/scripts/results/thrustfit_latest.json,0.0643268833368048,0.06498216730682149,0.07158694094325907,0.07262861568040216,0.27352460726728756,0.0004621016853810834,-1.197811378091801e-05,1.0121598450707372e-05,0.005964552,-0.025561550694203943,-0.02167924855254607,0.017274312490230457,-0.18428598703303475,-0.22559532732093304,0.07233322787315269,"wx:deg/s, wy:deg/s, wz:deg/s"
3.4254424571990967,-0.0752885822246585,-0.0317682564388187,-0.0359717619369279,0.8199053718332809,0.046983428299427,0.008182761259377,-0.0010739887366071,-1.7982701063156128,-0.3550763130187988,1.223951816558838,-2.1898903846740723,-18.04424285888672,3.84527850151062,36991.0,37685.0,39901.0,39447.0,motor.m1,motor.m2,motor.m3,motor.m4,1.7982701063156128,1.0,17028,4.599342544058809e-11,/home/dzmitry/CrazySim/scripts/results/thrustfit_latest.json,0.06293437153228913,0.06531798742880086,0.07322566355701424,0.07156879676688989,0.27304681928499414,0.0005128051422472377,0.0001252549632857181,4.3347328360010735e-06,0.005964552,-0.03138573419539592,-0.006197250758020045,0.021361989084717373,-0.03822079747032773,-0.3149314489170478,0.06711277050751407,"wx:deg/s, wy:deg/s, wz:deg/s"
3.475869655609131,-0.0756460997957806,-0.0555609371301949,-0.0369022561424951,2.496034851959545,0.0551634132862091,0.0226128213107585,-0.0014913849299773,-1.6608234643936155,0.6940794587135315,1.43996000289917,3.219670295715332,-18.86811065673828,3.4831676483154297,37081.0,36079.0,41761.0,39035.0,motor.m1,motor.m2,motor.m3,motor.m4,1.6608234643936155,1.0,17078,4.599342544058809e-11,/home/dzmitry/CrazySim/scripts/results/thrustfit_latest.json,0.0632409857831203,0.05986937701987641,0.08021166565850674,0.07008161848853346,0.2734036469500369,0.0008426705616653477,0.00020951159060861096,-8.05313288997823e-05,0.005964552,-0.0289868377480474,0.01211397182501117,0.02513204314761761,0.05619384748889202,-0.3293106545907126,0.06079274386205217,"wx:deg/s, wy:deg/s, wz:deg/s"
3.526254415512085,-0.0516263794377406,-0.0507794264318126,-0.0255487145323878,4.275179897811521,0.0632089748978614,0.0327242687344551,-0.0028457043226808,-1.3182655572891235,1.5057612657546997,1.5872886180877686,8.501591682434082,-17.249357223510742,2.472851514816284,35979.0,37031.0,41293.0,39769.0,motor.m1,motor.m2,motor.m3,motor.m4,1.5057612657546997,1.0,17127,4.599342544058809e-11,/home/dzmitry/CrazySim/scripts/results/thrustfit_latest.json,0.05953795759483662,0.06307055254580765,0.07842393469484481,0.07274197645797381,0.2737744212934629,0.0008852794313774044,0.00028565114882310276,-1.2819989085641203e-05,0.005964552,-0.02300807439033314,0.02628049183641685,0.027703412565062382,0.1483807665186389,-0.3010580774029299,0.0431594008464735,"wx:deg/s, wy:deg/s, wz:deg/s"
3.576620578765869,-0.0089015099039598,-0.0199892225600114,-0.0045802146918223,6.040851359664758,0.0693764090538024,0.0416428595781326,-0.0054005091078579,-0.8224722743034363,2.319818019866944,1.705015778541565,7.606361389160156,-11.827447891235352,1.3108203411102295,35877.0,36909.0,41613.0,39829.0,motor.m1,motor.m2,motor.m3,motor.m4,2.319818019866944,1.0,17178,4.599342544058809e-11,/home/dzmitry/CrazySim/scripts/results/thrustfit_latest.json,0.05920085742983381,0.06265566057280425,0.07964413659230957,0.07296163553866701,0.2744622901336146,0.0009532268779784943,0.0003142564300950032,-1.9251772028495192e-05,0.005964552,-0.014354849192960914,0.0404884624937734,0.02975813913400479,0.13275605033741444,-0.20642790781011708,0.022878130854488688,"wx:deg/s, wy:deg/s, wz:deg/s"
3.626994609832764,0.0407652382245596,0.0230266500038662,0.0202253071233533,7.664189732597505,0.0781662911176681,0.0467311255633831,-0.0079213678836822,-0.5189307928085327,2.749255895614624,1.7468277215957642,1.9931905269622805,-4.360581874847412,0.2023353427648544,35653.0,36475.0,42183.0,40237.0,motor.m1,motor.m2,motor.m3,motor.m4,2.749255895614624,1.0,17228,4.599342544058809e-11,/home/dzmitry/CrazySim/scripts/results/thrustfit_latest.json,0.058463917652158394,0.061190831787685314,0.0818409536868947,0.07446409945600807,0.2759598025827465,0.0011361594147948312,0.0003132168193588198,-2.7734809495657967e-05,0.005964552,-0.009057050924493408,0.04798356735834072,0.03048789520695694,0.03478773731505261,-0.07610651101887465,0.0035314179243979963,"wx:deg/s, wy:deg/s, wz:deg/s"
3.6773757934570312,0.0828401888955236,0.0593875937507484,0.0416160972993222,9.016722703487174,0.0923360362648963,0.0505369305610656,-0.008457988500595,-0.5614826679229736,2.775148391723633,1.7309600114822388,-2.4961323738098145,-0.3925021886825561,-0.7989683151245117,35314.0,36900.0,42810.0,39584.0,motor.m1,motor.m2,motor.m3,motor.m4,2.775148391723633,1.0,17278,4.599342544058809e-11,/home/dzmitry/CrazySim/scripts/results/thrustfit_latest.json,0.05735741642367928,0.06262510801415916,0.08429197143060659,0.07206677894451122,0.27634127481295623,0.0011276630040556604,0.0005422794063738323,-4.1498375881945145e-05,0.005964552,-0.009799721248137841,0.04843547666700275,0.030210951420723917,-0.043565728488603135,-0.0068504555137946285,-0.013944627718034338,"wx:deg/s, wy:deg/s, wz:deg/s"
3.727751016616821,0.1045754624713024,0.0735897386302518,0.0531409104951922,9.985671840481723,0.1137904152274131,0.0558930709958076,-0.0074961530044674,-0.9091525673866272,2.578509569168091,1.6535667181015017,-9.636046409606934,4.315234184265137,-2.181556463241577,34760.0,36020.0,43510.0,40218.0,motor.m1,motor.m2,motor.m3,motor.m4,2.578509569168091,1.0,17328,4.599342544058809e-11,/home/dzmitry/CrazySim/scripts/results/thrustfit_latest.json,0.05557190583862391,0.05967372830100679,0.08707107816942868,0.07439379183617545,0.27671050414523485,0.001432796311845176,0.0005201523726647193,-5.1148800181927546e-05,0.005964552,-0.015867705703856264,0.04500348177616365,0.028860183632268124,-0.16818073672261916,0.07531504451003831,-0.03807534310172817,"wx:deg/s, wy:deg/s, wz:deg/s"
3.7781379222869873,0.099259564264156,0.0604211671332721,0.0512956189650127,10.487707761214798,0.138712853193283,0.0655571743845939,-0.0055179321207106,-1.5356805324554443,2.2497947216033936,1.4965198040008545,-11.57989501953125,3.397680282592773,-3.654630422592163,34225.0,35153.0,44067.0,40819.0,motor.m1,motor.m2,motor.m3,motor.m4,2.2497947216033936,1.0,17377,4.599342544058809e-11,/home/dzmitry/CrazySim/scripts/results/thrustfit_latest.json,0.05387442763572376,0.05683561241128525,0.08931465535386306,0.07663382053585023,0.2766585159367223,0.0017123915111238327,0.00048490260740080343,-5.797335810000322e-05,0.005964552,-0.026802681550127144,0.039266325385968415,0.02611919790111512,-0.2021072951261134,0.05930070786133527,-0.063785333817785,"wx:deg/s, wy:deg/s, wz:deg/s"
3.8284966945648193,0.0686387585471308,0.0270959161684465,0.0367721296176726,10.477352459715972,0.1768617033958435,0.081480398774147,-0.0037346964236348,-2.1264216899871826,2.1258225440979004,1.2525402307510376,-9.222658157348633,-1.183232069015503,-5.52678108215332,32158.0,35032.0,43574.0,43140.0,motor.m1,motor.m2,motor.m3,motor.m4,2.1264216899871826,1.0,17428,4.599342544058809e-11,/home/dzmitry/CrazySim/scripts/results/thrustfit_latest.json,0.04756350134909013,0.05644501853497498,0.08732741682293704,0.08559650595309069,0.27693244266009287,0.002136377489650841,0.0003289852697276668,4.2650163203540126e-05,0.005964552,-0.037113059776098474,0.03710260270763071,0.021860951040295135,-0.16096575063164692,-0.020651295419505306,-0.09646052692051066,"wx:deg/s, wy:deg/s, wz:deg/s"
