t_s,vx_ref,vy_ref,vz_ref,yawrate_ref_deg_s,vx,vy,vz,roll_deg,pitch_deg,yaw_deg,wx_raw,wy_raw,wz_raw,m1,m2,m3,m4,motor_var1,motor_var2,motor_var3,motor_var4,log_timestamp,a_N_per_u2,a_source,F1_N,F2_N,F3_N,F4_N,T_N,tau_x_Nm,tau_y_Nm,tau_z_Nm,momentConstant_km,roll_rad,pitch_rad,yaw_rad,wx_radps,wy_radps,wz_radps,gyro_units_detected
7.605552673339844e-05,-4.388542795060735e-05,-5.021308291757842e-05,-2.205590753711739e-05,-0.0026249238619973,1.3350831551406372e-10,-4.3603085031485023e-10,0.0031332094222307,0.0,0.0,0.0,0.0,0.0,0.0,38748.0,38748.0,38748.0,38748.0,motor.m1,motor.m2,motor.m3,motor.m4,14376,4.599342544058809e-11,/home/dzmitry/CrazySim/scripts/results/thrustfit_latest.json,0.06905487409116347,0.06905487409116347,0.06905487409116347,0.06905487409116347,0.27621949636465387,0.0,0.0,0.0,0.005964552,0.0,0.0,0.0,0.0,0.0,0.0,"wx:deg/s, wy:deg/s, wz:deg/s"
0.0503568649291992,-0.0122442732481677,-0.0108931313097456,-0.0061965479945116,-1.145972881670896,4.2264244881629054e-10,-6.196483770537497e-09,0.0024979223962873,0.0,0.0,0.0,0.0,0.0,0.0,38748.0,38748.0,38750.0,38750.0,motor.m1,motor.m2,motor.m3,motor.m4,14426,4.599342544058809e-11,/home/dzmitry/CrazySim/scripts/results/thrustfit_latest.json,0.06905487409116347,0.06905487409116347,0.06906200288813306,0.06906200288813306,0.27623375395859306,4.41985412115084e-07,0.0,0.0,0.005964552,0.0,0.0,0.0,0.0,0.0,0.0,"wx:deg/s, wy:deg/s, wz:deg/s"
0.1007015705108642,0.0097348342476086,0.0223735667209781,0.0047144224453329,-1.036858099531802,-2.0360263079055585e-05,-2.0663928808062337e-05,0.0019344676984474,0.0064290175214409,0.0068578333593904,1.455598157917848e-05,1.7642500400543213,-1.9100933074951167,0.0624254494905471,38719.0,38927.0,38725.0,38633.0,motor.m1,motor.m2,motor.m3,motor.m4,14476,4.599342544058809e-11,/home/dzmitry/CrazySim/scripts/results/thrustfit_latest.json,0.0689515478831939,0.06969435862963995,0.06897291937223282,0.06864558710695139,0.27626441299201804,-3.184940104313883e-05,3.317443336355204e-05,2.478143005787373e-06,0.005964552,0.00011220752341754885,0.00011969177167446607,2.540498044163082e-07,0.030791972027389744,-0.03333741723609827,0.0010895296306474636,"wx:deg/s, wy:deg/s, wz:deg/s"
0.1510181427001953,0.0575918969142702,0.0837683457387805,0.0285569114164919,0.3008205920616293,-0.0004476732574403,-0.0003975716826971,0.0020903849508613,0.0678979009389877,0.0827732533216476,0.0078308433294296,-4.476040840148926,2.1448850631713867,0.3803334236145019,38589.0,38349.0,38831.0,39171.0,motor.m1,motor.m2,motor.m3,motor.m4,14526,4.599342544058809e-11,/home/dzmitry/CrazySim/scripts/results/thrustfit_latest.json,0.06848931211777896,0.06764003799780745,0.06935102837920067,0.07057080529741436,0.2760511837922014,0.00011756699039188736,-6.414058218374118e-05,2.2098832062610345e-06,0.005964552,0.001185041926578285,0.0014446658030500836,0.00013667399930638148,-0.07812165011433195,0.037435306429187264,0.0066380704974554105,"wx:deg/s, wy:deg/s, wz:deg/s"
0.2013478279113769,0.1144822524991345,0.1457012178960969,0.0569130357553696,2.681567589367668,-0.0005655720015056,0.0001099814617191,0.0033124091569334,-0.22684346139431,-0.0907465741038322,0.0346003286540508,-14.37574291229248,10.099534034729004,0.8554246425628662,38533.0,37841.0,38945.0,39433.0,motor.m1,motor.m2,motor.m3,motor.m4,14576,4.599342544058809e-11,/home/dzmitry/CrazySim/scripts/results/thrustfit_latest.json,0.06829067424019654,0.0658598845429737,0.06975882743010632,0.07151800530730734,0.2754273915205839,0.00022091449258154587,-0.00012988899480713932,-4.0058636243347654e-06,0.005964552,-0.003959165287951356,-0.0015838265030168946,0.0006038896572853245,-0.2509040462397422,0.17627012182324844,0.01492997651541764,"wx:deg/s, wy:deg/s, wz:deg/s"
0.2515921592712402,0.1615468915284834,0.1827414023358603,0.0803649921229358,5.783647771257277,0.0023487696889787,0.0050961808301508,0.0050366749055683,-0.9921910166740416,-0.6355063915252686,0.0787295326590538,-20.75799369812012,16.16041374206543,0.9767060279846193,38519.0,37451.0,39107.0,39403.0,motor.m1,motor.m2,motor.m3,motor.m4,14626,4.599342544058809e-11,/home/dzmitry/CrazySim/scripts/results/thrustfit_latest.json,0.06824105984435787,0.06450933911754733,0.07034038780258951,0.07140922717666631,0.274500013941161,0.00027897569653786937,-0.0001488173631275071,-1.5882894298210675e-05,0.005964552,-0.017317000049671984,-0.011091678949584126,0.001374089563456895,-0.36229533614042997,0.2820524282835794,0.01704673601240748,"wx:deg/s, wy:deg/s, wz:deg/s"
0.3019313812255859,0.1852141998233572,0.1837417091705583,0.0921415535187636,9.220717970583909,0.0107800345867872,0.0173793267458677,0.0052071954123675,-1.9139741659164429,-1.3711261749267578,0.1025721356272697,-17.801193237304688,16.210674285888672,0.3403693735599518,38606.0,37522.0,39218.0,39006.0,motor.m1,motor.m2,motor.m3,motor.m4,14676,4.599342544058809e-11,/home/dzmitry/CrazySim/scripts/results/thrustfit_latest.json,0.06854966997988603,0.06475416593862189,0.07074025809287689,0.069977526674004,0.2740216206853888,0.00022983241429956267,-9.401595129412878e-05,-2.7187832430231214e-05,0.005964552,-0.03340515099335416,-0.023930666212747646,0.0017902214874980355,-0.31068943277471506,0.2829296402571379,0.005940566241571692,"wx:deg/s, wy:deg/s, wz:deg/s"
0.3521676063537597,0.1813771057207258,0.1557841193517969,0.0902025936843368,12.557304951526492,0.0253844130784273,0.0369177274405956,0.0034125200472772,-2.7404513359069824,-2.112251043319702,0.0723333954811096,-10.870501518249512,12.509040832519531,-1.0584876537322998,38640.0,37982.0,39492.0,38318.0,motor.m1,motor.m2,motor.m3,motor.m4,14726,4.599342544058809e-11,/home/dzmitry/CrazySim/scripts/results/thrustfit_latest.json,0.06867046545669987,0.06635160223207633,0.07173217714237835,0.06753072648141159,0.27428497131256613,0.00013146591398542542,5.8360210526639446e-05,-3.889075122692542e-05,0.005964552,-0.047829898802253946,-0.03686573533461418,0.0012624559102925505,-0.18972604283649644,0.2183239487938784,-0.018474094649338278,"wx:deg/s, wy:deg/s, wz:deg/s"
0.4024090766906738,0.1565808737208996,0.1194261876751498,0.0778280618526267,15.4119912751519,0.0453395061194896,0.0617677457630634,0.0003751725889742,-3.16255784034729,-2.6238694190979004,-0.0404313653707504,0.1994490027427673,4.561307907104492,-3.144659280776977,38499.0,38323.0,40007.0,37835.0,motor.m1,motor.m2,motor.m3,motor.m4,14776,4.599342544058809e-11,/home/dzmitry/CrazySim/scripts/results/thrustfit_latest.json,0.06817021341154621,0.06754835139200756,0.07361523927686553,0.06583900095219185,0.27517280503261116,0.00011580593819061251,0.00022178566545918597,-5.00909062042723e-05,0.005964552,-0.05519704709882138,-0.04579516050564934,-0.0007056604467964124,0.0034810417876804905,0.07960984117622504,-0.05488465830295508,"wx:deg/s, wy:deg/s, wz:deg/s"
0.4527618885040283,0.1246051024268014,0.0976011835130199,0.0619081823992747,17.48322729583258,0.0679924562573432,0.0878806635737419,-0.0012045097537338,-3.000372171401977,-2.673115491867065,-0.2529716789722442,10.081388473510742,-5.398523807525635,-5.307555198669434,38410.0,38694.0,40466.0,37198.0,motor.m1,motor.m2,motor.m3,motor.m4,14827,4.599342544058809e-11,/home/dzmitry/CrazySim/scripts/results/thrustfit_latest.json,0.06785539296775449,0.06886253565710308,0.07531410335366105,0.06364069822397157,0.27567273020249017,6.93430615360262e-05,0.0003930969823901804,-6.361947697106009e-05,0.005964552,-0.05236637317617615,-0.04665466661914799,-0.0044151887123637665,0.1759534220353676,-0.09422201518862296,-0.09263431344812338,"wx:deg/s, wy:deg/s, wz:deg/s"
0.5031626224517822,0.1011238833039198,0.104372498052302,0.0502747094903314,18.580687166947307,0.0899053290486335,0.1115353256464004,-0.000921725295484,-2.492650270462036,-2.328988552093506,-0.5614502429962158,11.99021816253662,-11.38006591796875,-7.775794982910156,37986.0,38356.0,41050.0,37316.0,motor.m1,motor.m2,motor.m3,motor.m4,14877,4.599342544058809e-11,/home/dzmitry/CrazySim/scripts/results/thrustfit_latest.json,0.0663655783462518,0.0676647334776964,0.07750363619349859,0.06404510240815861,0.2755790504256054,0.00023307123010897924,0.0004574883564203219,-7.252524626884894e-05,0.005964552,-0.04350495432028969,-0.04064851847528715,-0.0097991553264062,0.20926878496868861,-0.19861961936254563,-0.13571322441183845,"wx:deg/s, wy:deg/s, wz:deg/s"
0.5535099506378174,0.0975130803296143,0.1381458624396881,0.0486084942171385,18.66163511878469,0.107264906167984,0.1298659741878509,0.000495720654726,-1.8332349061965945,-1.643829584121704,-0.9854204058647156,10.961899757385254,-15.031604766845703,-10.548714637756348,37681.0,37981.0,41361.0,37485.0,motor.m1,motor.m2,motor.m3,motor.m4,14927,4.599342544058809e-11,/home/dzmitry/CrazySim/scripts/results/thrustfit_latest.json,0.06530412206679385,0.06634810843349959,0.07868243945471771,0.06462652227072707,0.2749611922257382,0.00036135866797969195,0.0004680970100715879,-7.761033798009837e-05,0.005964552,-0.03199598507561997,-0.028690238584612837,-0.017198830598678126,0.19132124303994028,-0.2623509950399321,-0.18410980228216922,"wx:deg/s, wy:deg/s, wz:deg/s"
0.6038422584533691,0.1166402171343831,0.1834489586340431,0.0583400625441014,17.83040393710636,0.1183696910738945,0.1430297046899795,0.0021557351574301,-1.316311955451965,-0.860822856426239,-1.5505505800247192,4.535848140716553,-13.760031700134276,-12.996230125427246,37479.0,37635.0,41643.0,37503.0,motor.m1,motor.m2,motor.m3,motor.m4,14977,4.599342544058809e-11,/home/dzmitry/CrazySim/scripts/results/thrustfit_latest.json,0.0646058351638587,0.06514477618859162,0.07975901345116401,0.06468860346049196,0.2741982282641063,0.00045560717233537537,0.00048388988147755364,-8.66737022837302e-05,0.005964552,-0.022973977606001714,-0.015024193121060299,-0.027062212840139172,0.07916548442596691,-0.24015785834613618,-0.22682700603558106,"wx:deg/s, wy:deg/s, wz:deg/s"
0.6541690826416016,0.1523212573316155,0.2193869409442218,0.076381467607773,16.312264277199425,0.1233202517032623,0.1531646698713302,0.0041037527844309,-1.1242748498916626,-0.2336618602275848,-2.231379747390747,-2.253931999206543,-6.914772987365723,-14.764007568359377,37390.0,37388.0,41542.0,37676.0,motor.m1,motor.m2,motor.m3,motor.m4,15026,4.599342544058809e-11,/home/dzmitry/CrazySim/scripts/results/thrustfit_latest.json,0.06429936528638998,0.0642924866936548,0.07937259117854122,0.06528679243398922,0.2732512355925752,0.0004980934806070548,0.0004364465247063214,-8.405650679747096e-05,0.005964552,-0.019622297827974526,-0.004078168797306142,-0.038944923454287884,-0.03933853450221239,-0.12068555565749613,-0.2576805428572329,"wx:deg/s, wy:deg/s, wz:deg/s"
0.7045345306396484,0.192125470004271,0.2301660056706347,0.0965298026409856,14.416915156709758,0.1241930648684501,0.1626359969377517,0.0055334330536425,-1.2113068103790283,0.0623784363269805,-2.994755506515503,-3.099840879440308,-0.7221906185150146,-15.90836238861084,37343.0,37581.0,41389.0,37347.0,motor.m1,motor.m2,motor.m3,motor.m4,15076,4.599342544058809e-11,/home/dzmitry/CrazySim/scripts/results/thrustfit_latest.json,0.06413781563320776,0.0649579663482429,0.07878900622146356,0.0641515566289924,0.27203634483190664,0.0004291882069391642,0.0004791856095326952,-8.241399765400887e-05,0.005964552,-0.02114129209294467,0.001088709096151448,-0.05226834388092602,-0.054102429634149976,-0.012604604120101327,-0.27765330228168883,"wx:deg/s, wy:deg/s, wz:deg/s"
0.7549762725830078,0.2223061248156636,0.2123459792750241,0.1119298929164708,12.494027168829186,0.1241627410054206,0.1729839891195297,0.0063179731369018,-1.432637333869934,-0.0440600514411926,-3.822376012802124,-2.575386047363281,7.411258697509766,-16.206134796142578,37434.0,37656.0,41080.0,37254.0,motor.m1,motor.m2,motor.m3,motor.m4,15126,4.599342544058809e-11,/home/dzmitry/CrazySim/scripts/results/thrustfit_latest.json,0.06445078741725731,0.0652174968994834,0.07761695939444166,0.06383245916458212,0.2711177028757645,0.0003652151615107747,0.00045108750107465505,-7.764528983937856e-05,0.005964552,-0.025004238463023624,-0.0007689929662468836,-0.06671304667264999,-0.04494896603641188,0.1293508659886119,-0.282850411214708,"wx:deg/s, wy:deg/s, wz:deg/s"
0.8053452968597412,0.2329779162337178,0.1757461516529401,0.1176561270602769,10.889683801447768,0.1264229416847229,0.1842241585254669,0.006531729362905,-1.5226150751113892,-0.4785931408405304,-4.664297103881836,3.8139030933380127,11.384589195251465,-16.32868766784668,37248.0,37990.0,40948.0,37050.0,motor.m1,motor.m2,motor.m3,motor.m4,15176,4.599342544058809e-11,/home/dzmitry/CrazySim/scripts/results/thrustfit_latest.json,0.06381189955148907,0.06637955593221691,0.0771189565657723,0.06313529008585887,0.27044570213533714,0.0003119465262056819,0.0005130910086798795,-6.809138586911763e-05,0.005964552,-0.026574646301194507,-0.008353026085128197,-0.08140734175397403,0.06656516633074493,0.19869856544410966,-0.2849893623337188,"wx:deg/s, wy:deg/s, wz:deg/s"
0.8556883335113525,0.2218252006393364,0.1372144561536707,0.1125624318864997,9.88202676731058,0.1326006650924682,0.1941247582435608,0.0056164655834436,-1.277462601661682,-1.0055562257766724,-5.497572422027588,11.178314208984377,9.941974639892578,-15.988037109375,37196.0,38464.0,40726.0,36762.0,motor.m1,motor.m2,motor.m3,motor.m4,15226,4.599342544058809e-11,/home/dzmitry/CrazySim/scripts/results/thrustfit_latest.json,0.06363385495418711,0.06804632069146976,0.07628502088523782,0.06215756847089612,0.2701227650017908,0.00020963482502478958,0.0005747374627003551,-5.7945543214625844e-05,0.005964552,-0.022295928470089134,-0.01755026695373041,-0.09595073963122065,0.19509838776924288,0.17352019161590307,-0.2790438884896305,"wx:deg/s, wy:deg/s, wz:deg/s"
0.906050443649292,0.1942324920272919,0.1113469702748702,0.0993416005533276,9.653420322873352,0.142408400774002,0.1998838484287262,0.0038823466747999,-0.743432879447937,-1.4343105554580688,-6.297080039978027,14.15089511871338,5.6556315422058105,-15.176626205444336,36877.0,38255.0,40927.0,37097.0,motor.m1,motor.m2,motor.m3,motor.m4,15276,4.599342544058809e-11,/home/dzmitry/CrazySim/scripts/results/thrustfit_latest.json,0.06254706310433836,0.06730884964373708,0.0770398766199054,0.06329557298811761,0.2701913623560985,0.00032486564265837414,0.000573688795306782,-5.357669028844338e-05,0.005964552,-0.012975351513948585,-0.025033441688852028,-0.10990477995923273,0.24697971192594234,0.09870939169113603,-0.26488209662945705,"wx:deg/s, wy:deg/s, wz:deg/s"
0.9563984870910645,0.160709095158833,0.1030190398473727,0.0832343492400099,10.267492746015346,0.1541687846183776,0.1998268216848373,0.0016464593354612,0.0005790565628558,-1.61529803276062,-7.045637130737305,15.476068496704102,-0.9630080461502076,-14.228720664978027,36692.0,38600.0,41068.0,36884.0,motor.m1,motor.m2,motor.m3,motor.m4,15326,4.599342544058809e-11,/home/dzmitry/CrazySim/scripts/results/thrustfit_latest.json,0.06192108039583421,0.06852836416945864,0.07757162017948455,0.06257081075171582,0.2705918754964932,0.0003004825773431331,0.000669850889243188,-5.006362022747765e-05,0.005964552,1.010644357711521e-05,-0.028192269072660047,-0.12296956583213214,0.27010835053165577,-0.016807661128518628,-0.2483380239504236,"wx:deg/s, wy:deg/s, wz:deg/s"
1.006746768951416,0.132332882934527,0.105235460718995,0.06975400779704,11.662179328707197,0.1654567122459411,0.1928784549236297,-0.0005111572099849,0.7403319478034973,-1.4708760976791382,-7.742184162139893,12.07990264892578,-7.303258895874023,-12.870523452758787,36664.0,38402.0,41266.0,37024.0,motor.m1,motor.m2,motor.m3,motor.m4,15376,4.599342544058809e-11,/home/dzmitry/CrazySim/scripts/results/thrustfit_latest.json,0.061826611371768855,0.06782713019179495,0.07832141107214917,0.06304671024396064,0.2710218628796736,0.00036314577232892525,0.0006595318090946538,-5.531634084514933e-05,0.005964552,0.01292123004687383,-0.025671630793386687,-0.13512660492509965,0.21083407454413952,-0.12746591385856743,-0.2246330107057897,"wx:deg/s, wy:deg/s, wz:deg/s"
1.05715012550354,0.1162592559124172,0.1034166582742747,0.0624456932038977,13.665269613185911,0.1730698198080063,0.1806724816560745,-0.0020820507779717,1.2875428199768066,-1.0652648210525513,-8.383212089538574,7.792202472686768,-10.350034713745115,-12.553741455078123,36591.0,38353.0,41383.0,37057.0,motor.m1,motor.m2,motor.m3,motor.m4,15426,4.599342544058809e-11,/home/dzmitry/CrazySim/scripts/results/thrustfit_latest.json,0.061580656239981386,0.06765414914868002,0.07876616441460015,0.06315914912931275,0.2711601189325743,0.0003934057528127955,0.000672095754013567,-5.686318995832727e-05,0.005964552,0.022471861469007898,-0.018592378533035227,-0.1463146528554418,0.13599958913042762,-0.18064218345056107,-0.21910412183521707,"wx:deg/s, wy:deg/s, wz:deg/s"
1.1075537204742432,0.1130349458678297,0.0835029862026344,0.0615468147184144,16.015354695317246,0.1763054430484771,0.1649683862924575,-0.0041596665978431,1.597930073738098,-0.5859692692756653,-9.019241333007812,3.854479789733887,-9.038978576660156,-12.679686546325684,36731.0,38113.0,41351.0,37329.0,motor.m1,motor.m2,motor.m3,motor.m4,15477,4.599342544058809e-11,/home/dzmitry/CrazySim/scripts/results/thrustfit_latest.json,0.06205278243160306,0.06681008516394242,0.07864439737266729,0.06408973373830477,0.27159699870651755,0.0004300091689782245,0.0005986709573677579,-5.843686856288403e-05,0.005964552,0.02788914100336558,-0.010227093064365608,-0.15741545729294865,0.06727336328243506,-0.1577599371799504,-0.22130227835421168,"wx:deg/s, wy:deg/s, wz:deg/s"
1.157916784286499,0.1165446211172769,0.0397325049040728,0.0639672853835545,18.4043476813467,0.1754138022661209,0.1481547504663467,-0.0065993620082736,1.7582069635391235,-0.1824715435504913,-9.681720733642578,3.857450246810913,-6.723302364349365,-13.510626792907717,37180.0,38168.0,41086.0,37322.0,motor.m1,motor.m2,motor.m3,motor.m4,15527,4.599342544058809e-11,/home/dzmitry/CrazySim/scripts/results/thrustfit_latest.json,0.063579122042018,0.06700304851067428,0.07763963396921017,0.06406569955188682,0.27228750407378927,0.0003448180520205465,0.0005269336874653687,-6.05402502102382e-05,0.005964552,0.0306865004452496,-0.0031847292261522973,-0.16897790406066393,0.06732520753871833,-0.11734376286501585,-0.23580492154440172,"wx:deg/s, wy:deg/s, wz:deg/s"
1.2082598209381104,0.1168086692393178,-0.0221824035651207,0.0646914137823899,20.526302877638987,0.1712892353534698,0.1304277032613754,-0.0078369360417127,1.958741307258606,0.0759789571166038,-10.37901496887207,7.891936302185059,-2.675487279891968,-14.107601165771484,37708.0,38076.0,40828.0,37256.0,motor.m1,motor.m2,motor.m3,motor.m4,15577,4.599342544058809e-11,/home/dzmitry/CrazySim/scripts/results/thrustfit_latest.json,0.06539774182225844,0.06668043001957939,0.07666761756271276,0.06383931310484127,0.2725851025093919,0.0002612915235972019,0.0004374407723109655,-6.886442855809919e-05,0.005964552,0.03418648500648058,0.0013260829639163134,-0.1811479843205944,0.13774027283079543,-0.04669606212934192,-0.24622408990090278,"wx:deg/s, wy:deg/s, wz:deg/s"
1.258540153503418,0.104241021260973,-0.0877053637171241,0.0589040759040151,22.11545548623837,0.1650354415178299,0.1104336306452751,-0.00710143847391,2.373152017593384,0.1541966050863266,-11.099198341369627,14.006092071533203,-0.1158600375056266,-14.927800178527832,38156.0,37888.0,40650.0,37098.0,motor.m1,motor.m2,motor.m3,motor.m4,15627,4.599342544058809e-11,/home/dzmitry/CrazySim/scripts/results/thrustfit_latest.json,0.06696092368423434,0.06602358724038765,0.07600057105010018,0.06329898547031818,0.2722840674450403,0.00019576641346968774,0.0003646917232139942,-8.135005963387856e-05,0.005964552,0.041419316357350945,0.002691238454153834,-0.19371755538879354,0.24445242198572756,-0.0020221391259573024,-0.260539263195108,"wx:deg/s, wy:deg/s, wz:deg/s"
1.3088059425354004,0.073599661829313,-0.1406802417967621,0.0439637333556229,22.98703067265711,0.1570284366607666,0.0850850790739059,-0.0062590474262833,3.015521287918091,0.1158071756362915,-11.894558906555176,14.794286727905272,0.4768120646476745,-16.0426082611084,38587.0,37371.0,40661.0,37057.0,motor.m1,motor.m2,motor.m3,motor.m4,15677,4.599342544058809e-11,/home/dzmitry/CrazySim/scripts/results/thrustfit_latest.json,0.06848221294057535,0.06423403351128207,0.07604170853567617,0.06315914912931275,0.27191710411684633,0.00020102294760707606,0.0002676657792891738,-0.00010217718258369389,0.005964552,0.052630775138150586,0.002021216512288646,-0.20759921599180436,0.25820901388604545,0.008321940441333976,-0.2799963347639837,"wx:deg/s, wy:deg/s, wz:deg/s"
1.359086990356445,0.0261070724489791,-0.1706065981573003,0.0204564576217404,23.053905913284563,0.1476844400167465,0.0548011325299739,-0.0054166279733181,3.799154758453369,0.0851843953132629,-12.72716999053955,15.491848945617676,-2.0885517597198486,-17.5338191986084,34946.0,40748.0,36930.0,40920.0,motor.m1,motor.m2,motor.m3,motor.m4,15727,4.599342544058809e-11,/home/dzmitry/CrazySim/scripts/results/thrustfit_latest.json,0.05616822513338358,0.07636746078881346,0.0627269788521675,0.07701352565266115,0.27227619042702567,0.0002233493760615806,0.00018329335450302346,0.00020569224271904348,0.005964552,0.06630775932782117,0.0014867481695368641,-0.22213102079593072,0.2703837713226404,-0.036452104805432844,-0.3060228754651101,"wx:deg/s, wy:deg/s, wz:deg/s"
1.409465789794922,-0.0310058049109477,-0.1767185706810101,-0.0080350530889441,22.3340046869643,0.1362466663122177,0.0188044048845767,-0.0057917176745831,4.522190570831299,0.2169700860977172,-13.65399169921875,11.594697952270508,-7.925738334655762,-19.23540496826172,34528.0,41112.0,36500.0,41388.0,motor.m1,motor.m2,motor.m3,motor.m4,15777,4.599342544058809e-11,/home/dzmitry/CrazySim/scripts/results/thrustfit_latest.json,0.05483256998745674,0.07773792872640367,0.06127474104322349,0.07878519902368586,0.27263043878076976,0.00023217268194451746,0.0001672419235130211,0.00024106224044538615,0.005964552,0.078927114863648,0.0037868423807407405,-0.23830711119134246,0.2023656550413647,-0.13833022959127525,-0.33572114965064237,"wx:deg/s, wy:deg/s, wz:deg/s"
1.45973539352417,-0.0867933862428531,-0.1668674666862797,-0.03607723535629,20.951636390822166,0.1210756972432136,-0.0211274679750204,-0.0061788028106093,4.980132102966309,0.5855191349983215,-14.6839017868042,4.675722122192383,-13.88538932800293,-20.64396095275879,38609.0,36817.0,40541.0,37549.0,motor.m1,motor.m2,motor.m3,motor.m4,15827,4.599342544058809e-11,/home/dzmitry/CrazySim/scripts/results/thrustfit_latest.json,0.06856032412692221,0.062343696734673236,0.07559353755976098,0.06484739079453565,0.2713449492158921,0.0002956441322737365,0.00014041510056226648,-0.00010117534852651164,0.005964552,0.08691970238103135,0.010219236739149875,-0.25628243321921174,0.08160674594059371,-0.242345761694934,-0.36030508927878646,"wx:deg/s, wy:deg/s, wz:deg/s"
1.510056972503662,-0.1312847115027041,-0.1519091133449118,-0.0587246996554959,19.103465734509943,0.100462719798088,-0.0626049637794494,-0.0060473913326859,5.084238052368164,1.166329026222229,-15.825098991394045,-3.5394742488861084,-13.983647346496582,-21.396949768066406,33514.0,41404.0,35090.0,43472.0,motor.m1,motor.m2,motor.m3,motor.m4,15876,4.599342544058809e-11,/home/dzmitry/CrazySim/scripts/results/thrustfit_latest.json,0.05165927254847465,0.0788461252265511,0.05663207729174219,0.0869190553644251,0.27405653043119305,0.0004044177813153876,-9.610388723280041e-05,0.00034280565215210327,0.005964552,0.08873669396900835,0.020356281669157178,-0.27620008185385986,-0.06177547943261583,-0.24406068763413372,-0.37344722333659586,"wx:deg/s, wy:deg/s, wz:deg/s"
1.5604031085968018,-0.1583404326410653,-0.1388947589098987,-0.072939589200156,17.035836524930396,0.0743444040417671,-0.1002066060900688,-0.005516504868865,4.730550289154053,1.8875515460968015,-16.9814510345459,-11.233805656433104,-16.757034301757812,-21.817811965942383,38992.0,36006.0,39970.0,38424.0,motor.m1,motor.m2,motor.m3,motor.m4,15926,4.599342544058809e-11,/home/dzmitry/CrazySim/scripts/results/thrustfit_latest.json,0.0699273031412388,0.059627350186555815,0.07347913787796644,0.06790486699165872,0.27093865819741975,0.00036670989779674645,-0.0001464961441196332,-9.468263355922875e-05,0.005964552,0.08256367797690803,0.03294398928049871,-0.2963822323190233,-0.19606689623392057,-0.29246542143530285,-0.3807926543867115,"wx:deg/s, wy:deg/s, wz:deg/s"
1.6107439994812012,-0.1676248401073595,-0.126899869275976,-0.0785654594204535,15.00424613166831,0.0430732853710651,-0.1311914175748825,-0.0053827660158276,4.071204662322998,2.59393310546875,-18.139089584350582,-15.958284378051758,-14.391128540039062,-21.486007690429688,39323.0,35907.0,39389.0,38705.0,motor.m1,motor.m2,motor.m3,motor.m4,15976,4.599342544058809e-11,/home/dzmitry/CrazySim/scripts/results/thrustfit_latest.json,0.07111955690376745,0.05929990519138863,0.0713584923809839,0.06890169395359552,0.2706796484297355,0.0003050624514221237,-0.00029024845183470344,-8.515262923404867e-05,0.005964552,0.07105592588008025,0.04527267326691102,-0.31658683656112735,-0.2785246053665787,-0.25117257610140625,-0.3750015773068206,"wx:deg/s, wy:deg/s, wz:deg/s"
1.661095380783081,-0.1639143722188159,-0.1077678337143847,-0.0779727796821027,13.232091271497438,0.0082992920652031,-0.1537765860557556,-0.004637346137315,3.255601406097412,3.11816668510437,-19.207599639892575,-17.53921890258789,-9.734517097473145,-20.336763381958008,35009.0,40475.0,34495.0,43209.0,motor.m1,motor.m2,motor.m3,motor.m4,16026,4.599342544058809e-11,/home/dzmitry/CrazySim/scripts/results/thrustfit_latest.json,0.05637092574821544,0.07534760813829833,0.05472780804871861,0.08587053850733319,0.2723168804425656,0.00027527419275567887,-0.00037714749012448265,0.0002989398441455241,0.005964552,0.056820963668956836,0.05442227528106849,-0.3352358551210026,-0.3061171180781853,-0.16989937444258815,-0.3549434802141844,"wx:deg/s, wy:deg/s, wz:deg/s"
1.7114391326904297,-0.1543489340272386,-0.0714666664750068,-0.0746776195282745,11.880812381418323,-0.0284789819270372,-0.1679567992687225,-0.00521109579131,2.4458673000335693,3.4243311882019043,-20.242094039916992,-18.280920028686523,-3.4303736686706543,-19.53218078613281,35127.0,40591.0,33799.0,43651.0,motor.m1,motor.m2,motor.m3,motor.m4,16077,4.599342544058809e-11,/home/dzmitry/CrazySim/scripts/results/thrustfit_latest.json,0.05675156954484617,0.07578011448940326,0.052541619850779105,0.08763632361605929,0.2727096275010878,0.00023703404241025771,-0.0004980509234424157,0.0003228209313387573,0.005964552,0.0426884374524498,0.059765853912852836,-0.353291188494872,-0.3190622447943561,-0.05987131509201997,-0.3409008648127919,"wx:deg/s, wy:deg/s, wz:deg/s"
1.761782169342041,-0.1448991059483232,-0.0130639159946834,-0.0715772732572964,11.025245737905566,-0.0571688339114189,-0.1728970408439636,-0.0061664637178182,1.7365368604660034,3.4085867404937744,-20.99851417541504,-20.250965118408203,1.9136087894439695,-18.88185310363769,40102.0,36194.0,38108.0,38848.0,motor.m1,motor.m2,motor.m3,motor.m4,16126,4.599342544058809e-11,/home/dzmitry/CrazySim/scripts/results/thrustfit_latest.json,0.07396526557213443,0.060251646546116186,0.06679255683953988,0.06941176467521226,0.27042123363300274,6.160969129154767e-05,-0.000506317632712409,-6.617319245419981e-05,0.005964552,0.030308285797377113,0.05949106146143789,-0.36649321038769456,-0.3534460180227465,0.03339877397090018,-0.3295505055363878,"wx:deg/s, wy:deg/s, wz:deg/s"
1.8121414184570312,-0.1375403056568914,0.0624724808487669,-0.0695442688808965,10.645704267373429,-0.088295578956604,-0.1717549711465835,-0.0077011263929307,0.7063339948654175,3.16407322883606,-21.923999786376957,-26.37411880493164,6.198751449584961,-17.966690063476562,39986.0,36068.0,38064.0,39266.0,motor.m1,motor.m2,motor.m3,motor.m4,16176,4.599342544058809e-11,/home/dzmitry/CrazySim/scripts/results/thrustfit_latest.json,0.07353797708315887,0.05983287585555853,0.06663840674662283,0.07091352599698629,0.27092278568232653,0.00012961347395164333,-0.0005573868348168779,-5.6245617862292214e-05,0.005964552,0.012327853829166256,0.055223495617397235,-0.38264598147881135,-0.4603152104582092,0.10818862230802886,-0.313577897293015,"wx:deg/s, wy:deg/s, wz:deg/s"
1.8624844551086424,-0.1293482564261757,0.1402477620438119,-0.0669841506468537,10.633329163250242,-0.1133192554116249,-0.1613912433385849,-0.0083286063745617,-0.5933310389518738,2.774090051651001,-22.79741477966309,-31.47362518310547,6.838504791259766,-16.653045654296875,39706.0,36264.0,38250.0,39204.0,motor.m1,motor.m2,motor.m3,motor.m4,16227,4.599342544058809e-11,/home/dzmitry/CrazySim/scripts/results/thrustfit_latest.json,0.0725116908262997,0.06048492795955637,0.06729125600867042,0.07068976154313826,0.27097763633766475,0.0001545163617445314,-0.00047818332043754615,-5.1463689527738365e-05,0.005964552,-0.010355580183988923,0.04841700514812953,-0.39788994884793855,-0.5493183869837936,0.11935442452089046,-0.2906504771524139,"wx:deg/s, wy:deg/s, wz:deg/s"
1.912825107574463,-0.1138802385548804,0.2007465647976403,-0.0605437199957675,10.80794243847156,-0.1297450065612793,-0.1408567428588867,-0.0085690859705209,-2.0556862354278564,2.399609088897705,-23.61606216430664,-28.70558738708496,7.116952896118164,-15.32520866394043,40149.0,37085.0,37787.0,38427.0,motor.m1,motor.m2,motor.m3,motor.m4,16277,4.599342544058809e-11,/home/dzmitry/CrazySim/scripts/results/thrustfit_latest.json,0.07413874343623096,0.0632546303766852,0.06567205144089577,0.06791547091387433,0.2709808961676863,-0.00011798139520252746,-0.000406953508508254,-5.153786621314661e-05,0.005964552,-0.0358784931961434,0.04188107936204626,-0.412178041122809,-0.5010070136235886,0.12421426074660792,-0.2674753497409217,"wx:deg/s, wy:deg/s, wz:deg/s"
1.9631731510162356,-0.0843088498993384,0.2275174209410578,-0.0466899349393955,10.94755916454636,-0.1376426964998245,-0.1099742725491523,-0.0091355573385953,-3.5441644191741943,2.0317749977111816,-24.38007164001465,-28.952449798583984,8.302570343017578,-14.276100158691406,40092.0,37198.0,37898.0,38316.0,motor.m1,motor.m2,motor.m3,motor.m4,16327,4.599342544058809e-11,/home/dzmitry/CrazySim/scripts/results/thrustfit_latest.json,0.0739283816045366,0.06364069822397157,0.06605844381779205,0.06752367716108117,0.2711512008073814,-0.00012359572433868387,-0.0003643404184394787,-5.262196201473413e-05,0.005964552,-0.06185733834662214,0.03546116336976037,-0.42551252199034933,-0.5053155755036596,0.14490718886409173,-0.24916495211365,"wx:deg/s, wy:deg/s, wz:deg/s"
2.013519287109375,-0.0370070312467302,0.2137561699897257,-0.0235135164608725,10.822736499113685,-0.1367177963256836,-0.0690657347440719,-0.011180100031197,-4.911698341369629,1.6478086709976196,-25.11144256591797,-22.74468040466309,10.504060745239258,-13.527006149291992,40113.0,37475.0,37925.0,38219.0,motor.m1,motor.m2,motor.m3,motor.m4,16376,4.599342544058809e-11,/home/dzmitry/CrazySim/scripts/results/thrustfit_latest.json,0.07400584856097331,0.06459204559901681,0.06615260252421595,0.0671822267999199,0.271932723484126,-0.0001631550099114817,-0.00032374624436747393,-5.000786975144499e-05,0.005964552,-0.08572530792164444,0.028759686751820456,-0.43827735270072177,-0.39696956037520714,0.18333044483391434,-0.23609079524266488,"wx:deg/s, wy:deg/s, wz:deg/s"
2.0639328956604004,0.0260281615427943,0.1645259857966772,0.0080509408895144,10.23087080483216,-0.1271273493766784,-0.0197869557887315,-0.0146681787446141,-5.845211505889893,1.174075961112976,-25.823659896850582,-9.68125057220459,14.28698444366455,-13.314861297607422,40347.0,38065.0,37715.0,37925.0,motor.m1,motor.m2,motor.m3,motor.m4,16426,4.599342544058809e-11,/home/dzmitry/CrazySim/scripts/results/thrustfit_latest.json,0.07487179621753555,0.06664190818010819,0.06542202455714748,0.06615260252421595,0.2730883314790072,-0.0003081113968046896,-0.00027777444613937084,-4.4730024878779145e-05,0.005964552,-0.10201818625323454,0.02049149118993834,-0.4507078901152619,-0.16896969819555513,0.24935491872315674,-0.2323881690896141,"wx:deg/s, wy:deg/s, wz:deg/s"
2.1143062114715576,0.0964475141906779,0.0941108397357806,0.0438554933188167,9.029934485766775,-0.1102295145392417,0.0311672892421484,-0.0160768255591392,-6.052310943603516,0.5212332010269165,-26.530466079711918,4.338837623596191,15.467569351196287,-12.447290420532228,39464.0,38690.0,38690.0,37524.0,motor.m1,motor.m2,motor.m3,motor.m4,16476,4.599342544058809e-11,/home/dzmitry/CrazySim/scripts/results/thrustfit_latest.json,0.0716304963492039,0.0688482990361659,0.0688482990361659,0.06476106918383312,0.2740881636053688,-0.00021295224212649396,4.045600871813897e-05,-4.0973055538066634e-05,0.005964552,-0.10563275332036619,0.009097235528629182,-0.46304398517964535,0.07572700224115995,0.26996001245893836,-0.217246200790237,"wx:deg/s, wy:deg/s, wz:deg/s"
2.1646552085876465,0.1618907381635423,0.0194502316203763,0.0777041371055136,7.158658739120244,-0.0874127671122551,0.0782155022025108,-0.0145200928673148,-5.463739395141602,-0.3402276337146759,-27.228700637817383,20.22236442565918,21.532445907592773,-11.844965934753418,39667.0,39009.0,38353.0,37279.0,motor.m1,motor.m2,motor.m3,motor.m4,16526,4.599342544058809e-11,/home/dzmitry/CrazySim/scripts/results/thrustfit_latest.json,0.07236931601615736,0.06998829120526125,0.06765414914868002,0.0639181598640412,0.2739299162341398,-0.0003343442444696189,4.200389868602413e-05,-3.648524865755109e-05,0.005964552,-0.09536024191614442,-0.00593809241459036,-0.4752304771697934,0.3529468417659248,0.3758120770950726,-0.20673365534801497,"wx:deg/s, wy:deg/s, wz:deg/s"
2.215005397796631,0.209519825733033,-0.0461263779040183,0.103117885632638,4.644989512377297,-0.0599060542881488,0.1138209477066993,-0.0112256156280636,-4.118348121643066,-1.4817469120025637,-27.906742095947266,33.66026306152344,26.14986038208008,-11.10316562652588,39800.0,39250.0,37910.0,37084.0,motor.m1,motor.m2,motor.m3,motor.m4,16576,4.599342544058809e-11,/home/dzmitry/CrazySim/scripts/results/thrustfit_latest.json,0.07285542563490917,0.07085574648031599,0.06610028385294166,0.0632512190903137,0.2730626750584805,-0.00044514974433106395,2.6330953849078038e-05,-2.8920585228949165e-05,0.005964552,-0.07187873446599545,-0.025861362295703422,-0.48706453307918307,0.5874824175110106,0.45640116260411984,-0.19378679757713566,"wx:deg/s, wy:deg/s, wz:deg/s"
2.265345573425293,0.229878171624229,-0.0958974552400519,0.1152589313176469,1.6050396620357257,-0.0289776641875505,0.1319049149751663,-0.0087009202688932,-2.302732229232788,-2.759520530700684,-28.520376205444336,37.472843170166016,24.33038711547852,-10.24056911468506,39263.0,39429.0,38147.0,36989.0,motor.m1,motor.m2,motor.m3,motor.m4,16626,4.599342544058809e-11,/home/dzmitry/CrazySim/scripts/results/thrustfit_latest.json,0.07090269054386701,0.07150349677323896,0.0669293387571618,0.06292756634506094,0.27226309241932867,-0.0003890277486613806,0.00014267993788565666,-2.0285239647128083e-05,0.005964552,-0.04019025919190097,-0.048162719037108205,-0.4977744686924504,0.6540244934028667,0.424645363449906,-0.1787316483292951,"wx:deg/s, wy:deg/s, wz:deg/s"
2.315687894821167,0.2197116033308284,-0.1286275057107974,0.1123411189555738,-1.775316558715924,0.0035714022815227,0.1303116381168365,-0.0090272361412644,-0.430958092212677,-3.912437677383423,-29.046470642089844,33.93488311767578,17.765348434448242,-9.370059967041016,38339.0,39107.0,38779.0,37623.0,motor.m1,motor.m2,motor.m3,motor.m4,16676,4.599342544058809e-11,/home/dzmitry/CrazySim/scripts/results/thrustfit_latest.json,0.06760476655970557,0.07034038780258951,0.06916541179228157,0.06510323971004991,0.2722138058646266,-0.00011397158865887255,0.00021073159307858367,-7.91228146193308e-06,0.005964552,-0.0075216376472245485,-0.06828491924942041,-0.5069565487883392,0.5922754416828807,0.31006382294514184,-0.1635383975341771,"wx:deg/s, wy:deg/s, wz:deg/s"
2.3660473823547363,0.1825486997514729,-0.1444904571516673,0.095923419471506,-5.265234105436479,0.0363130681216716,0.1108214482665062,-0.0115931974723935,1.22368323802948,-4.7173566818237305,-29.464609146118164,30.041030883789062,9.07436180114746,-7.582549095153809,38222.0,39098.0,38850.0,37982.0,motor.m1,motor.m2,motor.m3,motor.m4,16726,4.599342544058809e-11,/home/dzmitry/CrazySim/scripts/results/thrustfit_latest.json,0.06719277415022222,0.07030801556006028,0.06941891186955203,0.06635160223207633,0.27327130381191084,-5.363854386827892e-05,0.00019165908246672643,2.858915487074609e-07,0.005964552,0.021357301505079914,-0.08233340608877864,-0.514254442412997,0.5243148996154212,0.1583774909472261,-0.13234044740455078,"wx:deg/s, wy:deg/s, wz:deg/s"
2.416383981704712,0.1271555955584483,-0.1413400349476689,0.0701479444395348,-8.616121838528505,0.0668779462575912,0.0762417465448379,-0.0150040686130523,2.5697121620178223,-4.96959924697876,-29.788414001464844,21.38850212097168,-3.556483030319214,-5.502746105194092,37819.0,39099.0,39225.0,38441.0,motor.m1,motor.m2,motor.m3,motor.m4,16777,4.599342544058809e-11,/home/dzmitry/CrazySim/scripts/results/thrustfit_latest.json,0.06578332756645934,0.07031161210794945,0.07076551312877974,0.06796496683064907,0.27482541963383755,8.170174883562068e-05,0.00022719375602824445,1.0305184594906042e-05,0.005964552,0.04484993805575297,-0.08673586936441022,-0.5199059032727404,0.3732997840807463,-0.0620723386703756,-0.09604103743693114,"wx:deg/s, wy:deg/s, wz:deg/s"
2.4667251110076904,0.0643154596002713,-0.1142475701517111,0.040159945913252,-11.602892186237394,0.091211624443531,0.0334704704582691,-0.0172049365937709,3.40933609008789,-4.542293071746826,-30.03308868408203,11.525657653808594,-15.545549392700195,-3.271603584289551,37197.0,39151.0,39621.0,38911.0,motor.m1,motor.m2,motor.m3,motor.m4,16827,4.599342544058809e-11,/home/dzmitry/CrazySim/scripts/results/thrustfit_latest.json,0.06363727654308592,0.07049875935606721,0.07220156658720603,0.06963707804964885,0.275974680536008,0.00023878087086875348,0.00029220511186669237,2.562964579946945e-05,0.005964552,0.05950414007910369,-0.07927796969250914,-0.5241762820806826,0.2011606745166447,-0.2713210209340234,-0.057100254365900494,"wx:deg/s, wy:deg/s, wz:deg/s"
2.517077207565308,0.0036153581797324,-0.0591240570955986,0.0105331203353288,-14.0464277189815,0.1073280349373817,-0.0117751965299248,-0.0173961799591779,3.77026891708374,-3.611623287200928,-30.200292587280277,1.4452896118164062,-21.63155746459961,-0.6588007807731628,37547.0,38799.0,38977.0,39781.0,motor.m1,motor.m2,motor.m3,motor.m4,16877,4.599342544058809e-11,/home/dzmitry/CrazySim/scripts/results/thrustfit_latest.json,0.06484048294998188,0.06923677335145817,0.06987351222041613,0.0727858817818994,0.2767366503037556,0.0002660462687271393,4.600154603978364e-05,4.359288239939044e-05,0.005964552,0.06580360628871235,-0.06303471770335697,-0.5270945407136778,0.02522506237106703,-0.3775419000916199,-0.011498242739201046,"wx:deg/s, wy:deg/s, wz:deg/s"
2.5674195289611816,-0.0486800052756801,0.0212665689365489,-0.0157499159426856,-15.8351386030785,0.1144647449254989,-0.0536604709923267,-0.0154408942908048,3.5602469444274902,-2.2731895446777344,-30.25746726989746,-11.526337623596191,-29.188854217529297,2.21239972114563,37131.0,38681.0,38955.0,40281.0,motor.m1,motor.m2,motor.m3,motor.m4,16927,4.599342544058809e-11,/home/dzmitry/CrazySim/scripts/results/thrustfit_latest.json,0.06341164898756015,0.06881627202028803,0.06979465630852454,0.07462704459571158,0.2766496219120843,0.0003780071767880266,1.7739277111766382e-05,6.105918634222125e-05,0.005964552,0.06213803136432729,-0.03967464207653721,-0.5280924271741304,-0.2011725422282524,-0.5094416109805194,0.03861365950419565,"wx:deg/s, wy:deg/s, wz:deg/s"
2.6177589893341064,-0.0899853874425705,0.1129390658366534,-0.0374347902958604,-16.937893158168993,0.112472303211689,-0.0856484845280647,-0.0125393848866224,2.7018041610717773,-0.6792562007904053,-30.16493797302246,-24.48748588562012,-31.638383865356445,5.300627708435059,36651.0,38505.0,39055.0,40657.0,motor.m1,motor.m2,motor.m3,motor.m4,16977,4.599342544058809e-11,/home/dzmitry/CrazySim/scripts/results/thrustfit_latest.json,0.06178277526794856,0.06819146347794196,0.07015345102038657,0.07602674816219626,0.2761544379284734,0.0005023847735374618,1.659712311369516e-05,7.325654029406779e-05,0.005964552,0.04715537835478572,-0.011855257168380281,-0.5264774862891064,-0.4273872542397107,-0.5521939684603203,0.09251340593463378,"wx:deg/s, wy:deg/s, wz:deg/s"
2.668107032775879,-0.1199164499834357,0.1914363483623862,-0.0542297581128366,-17.400254775477187,0.1028721705079078,-0.1023847311735153,-0.0092708962038159,1.2679613828659058,0.9300947785377502,-29.8752498626709,-28.535755157470703,-27.804126739501957,8.37564754486084,37394.0,38634.0,38230.0,40382.0,motor.m1,motor.m2,motor.m3,motor.m4,17027,4.599342544058809e-11,/home/dzmitry/CrazySim/scripts/results/thrustfit_latest.json,0.06431312357570258,0.0686491408809549,0.0672209044651165,0.07500175133101931,0.2751849202527933,0.00028707213152382805,-0.00010678971638016519,7.227166642579172e-05,0.005964552,0.02213010091915047,0.016233216241091232,-0.5214214749595909,-0.49804288204081676,-0.4852735572461049,0.14618262664440113,"wx:deg/s, wy:deg/s, wz:deg/s"
2.718449831008911,-0.1380469354345124,0.2290109010519335,-0.065678226263526,-17.331161203134428,0.0880295857787132,-0.1009759679436683,-0.0061458903364837,-0.4748511612415313,2.3591713905334477,-29.40146255493164,-34.85820007324219,-24.696346282958984,10.96133041381836,36962.0,38684.0,38272.0,40402.0,motor.m1,motor.m2,motor.m3,motor.m4,17077,4.599342544058809e-11,/home/dzmitry/CrazySim/scripts/results/thrustfit_latest.json,0.0628357323303325,0.06882694686436566,0.06736868520450484,0.07507606198863516,0.27410742638783814,0.00033424410795169753,-5.32010297530118e-05,8.170596024393466e-05,0.005964552,-0.008287716220583207,0.041175308383661645,-0.5131523264853813,-0.6083903625970047,-0.4310325558502974,0.19131130612012293,"wx:deg/s, wy:deg/s, wz:deg/s"
2.768789291381836,-0.1422282457347407,0.2062050231479106,-0.0703447768015927,-16.881054888527878,0.0698115602135658,-0.0798313096165657,-0.0042630969546735,-2.3353641033172607,3.526543378829956,-28.761823654174805,-30.67615127563477,-18.387624740600582,12.635557174682615,36851.0,38983.0,38293.0,40005.0,motor.m1,motor.m2,motor.m3,motor.m4,17126,4.599342544058809e-11,/home/dzmitry/CrazySim/scripts/results/thrustfit_latest.json,0.062458897019295384,0.06989502610510022,0.06744263642350087,0.07360787922495282,0.27340443877284926,0.0002695943682458008,3.9397474814939146e-05,8.112608989288122e-05,0.005964552,-0.040759792835771226,0.061549793174988425,-0.5019885216433373,-0.5353998415996853,-0.3209245933446484,0.22053207552220394,"wx:deg/s, wy:deg/s, wz:deg/s"
2.8191380500793457,-0.1284565335584752,0.122452162275785,-0.0658034845805536,-16.21333411465773,0.0507802367210388,-0.042284108698368,-0.0045396066270768,-3.747530937194824,4.301435470581055,-28.05287742614746,-18.68741607666016,-12.227350234985352,14.125314712524414,36859.0,39379.0,38369.0,39545.0,motor.m1,motor.m2,motor.m3,motor.m4,17176,4.599342544058809e-11,/home/dzmitry/CrazySim/scripts/results/thrustfit_latest.json,0.06248601842240919,0.07132226427963287,0.06771060847006648,0.07192484180780538,0.2734437329799139,0.00018064219485072449,0.00014328238810402787,7.784026178327244e-05,0.005964552,-0.06540675367439851,0.07507421152371109,-0.4896150757446656,-0.32615693922784084,-0.21340752039499672,0.24653324961394735,"wx:deg/s, wy:deg/s, wz:deg/s"
2.8695077896118164,-0.0926663774851841,0.0002855657162414,-0.0496097414298831,-15.475592966056434,0.0307573415338993,0.0058787083253264,-0.0048249596729874,-4.302255630493164,4.6413116455078125,-27.293235778808597,-2.7365942001342773,-3.6075263023376474,15.138739585876465,35990.0,39082.0,39260.0,39848.0,motor.m1,motor.m2,motor.m3,motor.m4,17226,4.599342544058809e-11,/home/dzmitry/CrazySim/scripts/results/thrustfit_latest.json,0.05957436870402749,0.07025048330404515,0.0708918559186294,0.07303126328368478,0.27374797121038685,0.0004370462830214877,0.0002646379242838303,7.64388471678204e-05,0.005964552,-0.07508852601457026,0.08100616982526722,-0.47635682786332884,-0.04776257908332379,-0.06296321182808835,0.26422085037554716,"wx:deg/s, wy:deg/s, wz:deg/s"
2.9197981357574463,-0.0339754247004603,-0.1198635177836764,-0.0210048317626351,-14.775864016255946,0.0093026179820299,0.0555440671741962,-0.0045925863087177,-3.772598028182984,4.562057971954346,-26.49253845214844,19.77127456665039,4.9595794677734375,16.121742248535156,36239.0,39531.0,39067.0,39327.0,motor.m1,motor.m2,motor.m3,motor.m4,17277,4.599342544058809e-11,/home/dzmitry/CrazySim/scripts/results/thrustfit_latest.json,0.0604015614264384,0.07187392414226342,0.07019656820097381,0.07113402643541107,0.2736060802050867,0.0002807083810981749,0.0003265820389230208,7.401902236852878e-05,0.005964552,-0.0658442569460389,0.07962293227745847,-0.46238202320119254,0.34507383850386436,0.08656099122695449,0.28137748339481244,"wx:deg/s, wy:deg/s, wz:deg/s"
2.970076322555542,0.0426309711471341,-0.1947316306750587,0.0176627934191378,-14.16046673554251,-0.0144107919186353,0.0959760546684265,-0.0014405264519155,-2.053329944610596,3.966707706451416,-25.70284843444824,39.38838958740234,15.507219314575195,16.168378829956055,36876.0,40418.0,38200.0,38386.0,motor.m1,motor.m2,motor.m3,motor.m4,17326,4.599342544058809e-11,/home/dzmitry/CrazySim/scripts/results/thrustfit_latest.json,0.06254367095123184,0.0751355370069409,0.06711544613992376,0.06777062230135124,0.2725652763994477,-8.658732502382941e-05,0.00037003738672272907,7.901267215030617e-05,0.005964552,-0.0358373681632477,0.06923210994180992,-0.4485993323221917,0.6874570853584215,0.27065203486819545,0.2821914452924815,"wx:deg/s, wy:deg/s, wz:deg/s"
3.020427703857422,0.1250672079770122,-0.1949345298474396,0.0602925971599277,-13.609329643276109,-0.0390210561454296,0.1169269084930419,0.0018985888455063,0.3849904537200928,2.8049862384796143,-24.901914596557617,46.566856384277344,27.415637969970703,16.15256690979004,37358.0,40576.0,37592.0,37866.0,motor.m1,motor.m2,motor.m3,motor.m4,17376,4.599342544058809e-11,/home/dzmitry/CrazySim/scripts/results/thrustfit_latest.json,0.06418935195631532,0.07572411726396222,0.06499599844972,0.06594693514946946,0.270856402819467,-0.0002780866042537307,0.00032809868684482036,7.447161887962002e-05,0.005964552,0.006719351006162471,0.048956245334600135,-0.4346203997603658,0.8127449662089815,0.47849314911076307,0.2819154752245221,"wx:deg/s, wy:deg/s, wz:deg/s"
3.070833921432495,0.1953705314243237,-0.1180166668459963,0.0976386204770493,-13.040716422620417,-0.0605456084012985,0.1135501712560653,0.0025190208107233,2.7934234142303467,1.1018640995025637,-24.04399681091309,38.602149963378906,31.737136840820312,16.27239418029785,37100.0,41392.0,37794.0,36938.0,motor.m1,motor.m2,motor.m3,motor.m4,17426,4.599342544058809e-11,/home/dzmitry/CrazySim/scripts/results/thrustfit_latest.json,0.06330581071067985,0.07880042836671775,0.06569638504451336,0.06275415839097108,0.27055678251288207,-0.000423326564899308,0.0005715421735969855,7.486938885871723e-05,0.005964552,0.04875443598062097,0.01923115644584215,-0.4196469096894499,0.6737346152095705,0.5539175330283059,0.2840068556285613,"wx:deg/s, wy:deg/s, wz:deg/s"
3.1211161613464355,0.2342133024922308,0.0079035030096137,0.1196014682294178,-12.326803144376887,-0.0743881538510322,0.0873422026634216,0.0013071061111986,4.357587814331055,-0.8696922063827515,-23.093299865722656,20.984420776367188,38.03993988037109,16.09532928466797,38510.0,40912.0,36554.0,37248.0,motor.m1,motor.m2,motor.m3,motor.m4,17477,4.599342544058809e-11,/home/dzmitry/CrazySim/scripts/results/thrustfit_latest.json,0.0682091743962435,0.0769834157807359,0.06145618124313887,0.06381189955148907,0.2704606709716073,-0.0006176597908528953,0.00019897421536040896,6.638522334586374e-05,0.005964552,0.07605425480486025,-0.015178992480313057,-0.4030541178072247,0.3662472341715121,0.6639221981731733,0.2809164902101197,"wx:deg/s, wy:deg/s, wz:deg/s"
3.1714773178100586,0.2275853668211817,0.1356145686443449,0.118686277558404,-11.310362947116117,-0.074387215077877,0.0469253659248352,0.0008068541064858,4.587700366973877,-2.905601978302002,-22.150434494018555,-6.755068302154541,35.779666900634766,15.297137260437012,38620.0,40058.0,36594.0,37952.0,motor.m1,motor.m2,motor.m3,motor.m4,17527,4.599342544058809e-11,/home/dzmitry/CrazySim/scripts/results/thrustfit_latest.json,0.06859939641570909,0.07380304492086846,0.061590754326503995,0.06624682828905415,0.27024002395213564,-0.00045151062035160214,1.697481082088559e-05,5.880882736422182e-05,0.005964552,0.08007047649864628,-0.050712321273830775,-0.386598012667948,-0.1178981830696999,0.6244729926829115,0.26698541132413117,"wx:deg/s, wy:deg/s, wz:deg/s"
3.2219138145446777,0.171686982559806,0.2162715078144569,0.0925250079350043,-9.839164085873346,-0.0574794076383113,0.00370152015239,0.0007212697528302,3.3639254570007324,-4.567554950714111,-21.296119689941406,-32.6699333190918,26.506845474243164,14.331624984741213,38751.0,38985.0,36477.0,38935.0,motor.m1,motor.m2,motor.m3,motor.m4,17577,4.599342544058809e-11,/home/dzmitry/CrazySim/scripts/results/thrustfit_latest.json,0.06906556742459813,0.06990219813588973,0.0611975424124308,0.0697230077503732,0.26988831572329186,-0.0002494636773281997,-0.00023835387342617444,5.584070871465075e-05,0.005964552,0.05871157501631771,-0.07971887265572856,-0.3716874064882715,-0.5701979028251511,0.462631727842901,0.25013404314481624,"wx:deg/s, wy:deg/s, wz:deg/s"
3.272257089614868,0.0768263130270785,0.2198292597552423,0.0459358935083098,-7.801196033746601,-0.0238487906754016,-0.030818298459053,-0.0011246602516621,1.1311883926391602,-5.494900703430176,-20.5566349029541,-41.16370391845703,11.155525207519531,13.486021995544434,42866.0,35508.0,38586.0,36296.0,motor.m1,motor.m2,motor.m3,motor.m4,17626,4.599342544058809e-11,/home/dzmitry/CrazySim/scripts/results/thrustfit_latest.json,0.08451264126281725,0.057989341620730626,0.06847866348995384,0.06059172101395539,0.2715723673874571,-0.0004163795497687981,-0.0005777270721487335,-0.00020524167844590855,0.005964552,0.019742961911895732,-0.09590410934500904,-0.3587809621869341,-0.7184421656931667,0.19470064466043951,0.2353754868186264,"wx:deg/s, wy:deg/s, wz:deg/s"
3.3226418495178223,-0.0345909608627869,0.1479567972796097,-0.0099947162081705,-5.1337970771186985,0.0193727239966392,-0.0475173592567443,-0.0048225587233901,-1.254171371459961,-5.379178047180176,-19.9190616607666,-42.93220901489258,-7.768655776977539,12.812973022460938,38425.0,37117.0,37261.0,40701.0,motor.m1,motor.m2,motor.m3,motor.m4,17676,4.599342544058809e-11,/home/dzmitry/CrazySim/scripts/results/thrustfit_latest.json,0.0679084015404104,0.06336384010963057,0.06385644956525906,0.07619139321890406,0.2713200844342041,0.00027204363515778663,-0.0005232646576171702,4.646613986815482e-05,0.005964552,-0.02188941981622916,-0.09388436797429295,-0.347653209888147,-0.7493084024642668,-0.13558862176233635,0.2236285662111527,"wx:deg/s, wy:deg/s, wz:deg/s"
3.373010873794556,-0.1329498006908028,0.0327275016259796,-0.0603439566285603,-1.8583616262904417,0.0640625730156898,-0.0452172048389911,-0.00721952971071,-3.0768368244171143,-4.21140718460083,-19.25346565246582,-28.23795890808105,-28.47638320922852,12.5916748046875,37379.0,36891.0,38811.0,40699.0,motor.m1,motor.m2,motor.m3,motor.m4,17726,4.599342544058809e-11,/home/dzmitry/CrazySim/scripts/results/thrustfit_latest.json,0.06426153757969555,0.06259456290644898,0.0692796079484395,0.07618390548924234,0.2723196139238264,0.0005768298014976561,-0.0002657094386355318,3.1238284584328435e-05,0.005964552,-0.053700933132685306,-0.07350292151342912,-0.33603636805516685,-0.49284535698887716,-0.49700664606066697,0.2197661836822108,"wx:deg/s, wy:deg/s, wz:deg/s"
3.423361301422119,-0.1903826632809387,-0.0771192054069128,-0.090854437489723,1.9215111694482467,0.1000801846385002,-0.027444427832961,-0.0056709148921072,-3.7058265209198,-2.080519676208496,-18.52008056640625,-3.389024257659912,-41.62613677978516,11.606117248535156,40145.0,33657.0,42553.0,37365.0,motor.m1,motor.m2,motor.m3,motor.m4,17777,4.599342544058809e-11,/home/dzmitry/CrazySim/scripts/results/thrustfit_latest.json,0.07412397145182166,0.05210106023485322,0.08328295427920415,0.0642134093234197,0.27372139528929873,0.0006594112893944185,-9.155435409670398e-05,-0.0002450980916501056,0.005964552,-0.06467887429777702,-0.03631191850236459,-0.3232363836184054,-0.05914963172612212,-0.7265131416927609,0.2025649593594435,"wx:deg/s, wy:deg/s, wz:deg/s"
3.473728656768799,-0.1894539590242701,-0.1371067509293032,-0.0923579138797756,6.026449175754244,0.1165059879422187,-0.0036883454304188,-0.0020399766508489,-2.959632635116577,0.4533564448356628,-17.851778030395508,13.44252109527588,-43.01634216308594,9.463552474975586,38852.0,32472.0,43200.0,38756.0,motor.m1,motor.m2,motor.m3,motor.m4,17827,4.599342544058809e-11,/home/dzmitry/CrazySim/scripts/results/thrustfit_latest.json,0.06942605943183919,0.04849688364616485,0.08583477029424312,0.06908339148672625,0.2728411048589734,0.0011468517797919254,-0.00012951170632288182,-0.00022474762725992783,0.005964552,-0.05165533413226022,0.007912562647518358,-0.31157230396559,0.23461625288135848,-0.7507768029103092,0.16517014962358226,"wx:deg/s, wy:deg/s, wz:deg/s"
3.52409291267395,-0.1291534471730858,-0.1254458465886353,-0.0638756560221223,10.209961934768163,0.1109659671783447,0.0178701281547546,-0.0011814616154879,-1.447521686553955,2.6975409984588623,-17.37392234802246,31.76906394958496,-38.55599594116211,6.552709102630615,36962.0,37862.0,40050.0,38242.0,motor.m1,motor.m2,motor.m3,motor.m4,17877,4.599342544058809e-11,/home/dzmitry/CrazySim/scripts/results/thrustfit_latest.json,0.0628357323303325,0.0659330031889824,0.0737735693902669,0.06726311097588,0.2698054158854618,0.0003803062902517922,0.00029783960746414045,-2.0358134661946196e-05,0.005964552,-0.025264019424387846,0.04708097213064243,-0.30323214895881606,0.5544747661968914,-0.6729290755588487,0.11436634876630726,"wx:deg/s, wy:deg/s, wz:deg/s"
3.574481248855591,-0.0260537071379754,-0.0515366355418931,-0.0133115574890173,14.19165325986286,0.0855377167463302,0.0306138657033443,-0.0059345001354813,0.3593020737171173,4.239349365234375,-17.12540626525879,30.131685256958008,-21.127246856689453,3.686129570007324,37703.0,38807.0,39713.0,37201.0,motor.m1,motor.m2,motor.m3,motor.m4,17927,4.599342544058809e-11,/home/dzmitry/CrazySim/scripts/results/thrustfit_latest.json,0.06538039977122893,0.06926532827765611,0.07253726008928515,0.06365096381854964,0.27083395195671983,4.781737162744184e-05,0.0003959079680920436,-2.9830918101340887e-05,0.005964552,0.0062710041956070784,0.07399060456567147,-0.29889472507043124,0.5258971169085509,-0.36874001953085356,0.06433509765175063,"wx:deg/s, wy:deg/s, wz:deg/s"
3.624845266342163,0.0900227123301671,0.049301278986044,0.0446295293141492,17.679012615253452,0.0476185530424118,0.033439751714468,-0.0124917067587375,1.6535425186157229,4.553469181060791,-17.0330810546875,18.740219116210938,-0.0914006233215332,1.3584325313568115,38327.0,40125.0,39751.0,35945.0,motor.m1,motor.m2,motor.m3,motor.m4,17976,4.599342544058809e-11,/home/dzmitry/CrazySim/scripts/results/thrustfit_latest.json,0.06756245297624763,0.07405013360661934,0.07267614330853518,0.059425484536369394,0.27371421442777155,-0.00029483972087683465,0.000611888521478662,-4.033813480159421e-05,0.005964552,0.028859761271563995,0.07947302959760062,-0.2972833461633652,0.3270785261230627,-0.0015952418153358703,0.023709120338377476,"wx:deg/s, wy:deg/s, wz:deg/s"
3.675210237503052,0.18526450577918,0.1324992078399265,0.0930277511821373,20.412168720862148,0.0098425624892115,0.0291075874119997,-0.0139055382460355,1.9333568811416624,3.61596941947937,-17.020503997802734,3.053832530975342,18.268407821655277,-1.1036604642868042,39083.0,41827.0,39791.0,33791.0,motor.m1,motor.m2,motor.m3,motor.m4,18026,4.599342544058809e-11,/home/dzmitry/CrazySim/scripts/results/thrustfit_latest.json,0.07025407838014472,0.08046540255592478,0.07282247967039099,0.05251675028577487,0.2760587108922354,-0.0007867877803770134,0.000946028660372282,-6.0208604777173453e-05,0.005964552,0.033743443192010676,0.06311057202134299,-0.29706383511051543,0.05329943247003144,0.31884386558496963,-0.019262508925894026,"wx:deg/s, wy:deg/s, wz:deg/s"
3.7255685329437256,0.2322073320125297,0.1639428823245464,0.1179320069104692,22.18533456351572,-0.01792130805552,0.0225472263991832,-0.0117133641615509,1.342443346977234,1.828200340270996,-17.128036499023438,-14.572555541992188,35.23345184326172,-4.390178203582764,39188.0,40278.0,39012.0,35958.0,motor.m1,motor.m2,motor.m3,motor.m4,18076,4.599342544058809e-11,/home/dzmitry/CrazySim/scripts/results/thrustfit_latest.json,0.07063207327742405,0.07461592904263138,0.06999905656440014,0.05946847638487231,0.27471553526932785,-0.0004891945504942722,0.00044994751428679026,-3.9048278198884146e-05,0.005964552,0.0234300564262454,0.03190811532380956,-0.29894063130972154,-0.2543390746375105,0.6149397415077821,-0.07662306440180915,"wx:deg/s, wy:deg/s, wz:deg/s"
3.775925874710083,0.218476443574749,0.1343052847677256,0.1127955384152019,22.87239332899351,-0.027572588995099,0.0184931326657533,-0.0090471925213932,0.1180044412612915,-0.385780781507492,-17.448925018310547,-23.11640739440918,40.30373764038086,-8.49541187286377,38238.0,39350.0,38028.0,38596.0,motor.m1,motor.m2,motor.m3,motor.m4,18126,4.599342544058809e-11,/home/dzmitry/CrazySim/scripts/results/thrustfit_latest.json,0.06724904066716922,0.07121725480427901,0.06651241640439232,0.06851416213557739,0.2734928740114179,-0.00010663122487583436,6.0960520583666546e-05,3.560813607235788e-05,0.005964552,0.002059566031985787,-0.006733144828222589,-0.3045411925031309,-0.40345742026480363,0.7034329226846163,-0.14827290849449068,"wx:deg/s, wy:deg/s, wz:deg/s"
3.8262782096862793,0.1506255932798535,0.0615814182984561,0.0804920612446054,22.43840351434374,-0.0182466693222522,0.0190555304288864,-0.0086586344987154,-1.0825700759887695,-2.3001482486724854,-18.00149154663086,-18.8399658203125,32.86804962158203,-12.332956314086914,37208.0,39204.0,37136.0,40632.0,motor.m1,motor.m2,motor.m3,motor.m4,18176,4.599342544058809e-11,/home/dzmitry/CrazySim/scripts/results/thrustfit_latest.json,0.06367492009210489,0.07068976154313826,0.06342872795619613,0.07593327917318027,0.27372668876461953,0.00015491709031813065,-0.00017018100274447407,0.00011642443257680923,0.005964552,-0.018894412209569236,-0.040145160223316156,-0.31418529775863485,-0.3288194345276475,0.5736556846054828,-0.21525069418544057,"wx:deg/s, wy:deg/s, wz:deg/s"
3.8766372203826895,0.0518479708201072,-0.0187056124081435,0.0322757247865205,20.940542272206265,0.006817883811891,0.022853435948491,-0.0083708623424172,-1.7407490015029907,-3.4480233192443848,-18.75035285949707,-9.664474487304688,18.50908660888672,-15.40794277191162,36161.0,37737.0,36823.0,43491.0,motor.m1,motor.m2,motor.m3,motor.m4,18226,4.599342544058809e-11,/home/dzmitry/CrazySim/scripts/results/thrustfit_latest.json,0.06014182735429031,0.06549837106774703,0.062364018469769904,0.0869950501633003,0.2749992670551075,0.0007352849765420188,-0.0005975091273822835,0.00017886245286889571,0.005964552,-0.03038180152703091,-0.06017935960635808,-0.3272553933089576,-0.16867690027845772,0.3230445028618652,-0.26891933232871945,"wx:deg/s, wy:deg/s, wz:deg/s"
3.927008867263794,-0.0456738982212674,-0.0705509874008127,-0.0159614877823041,18.51752750192992,0.0393497124314308,0.0272397007793188,-0.0061443876475095,-1.706433892250061,-3.597275257110596,-19.609020233154297,6.6999053955078125,-2.580631732940674,-17.504470825195312,39590.0,34374.0,40022.0,40062.0,motor.m1,motor.m2,motor.m3,motor.m4,18276,4.599342544058809e-11,/home/dzmitry/CrazySim/scripts/results/thrustfit_latest.json,0.07208862784530622,0.0543445379815018,0.07367045139453429,0.07381778489385366,0.273921402115196,0.000652707184308978,-0.0005546341242568371,-0.00010495676836730215,0.005964552,-0.029782889887385713,-0.06278429733710546,-0.34224196615872865,0.11693540872374424,-0.045040520521261763,-0.305510649718947,"wx:deg/s, wy:deg/s, wz:deg/s"
